X,Y,FNO,F_NAME,HMIS_,PROV,DIST,DIVISION,LOCATION,SUB_LOCATI,LONG,LAT,SPATIAL_RE,F_TYPE,AGENCY,N14,N15
36.84009,-1.137387,1,ANMER DISP,190,CENTRAL,KIAMBU,KIAMBAA,KAMITI,ANMER,36.840090,-1.137387,1:50000 MAPS,4,MOH,,
36.6347,-0.978523,2,BATHI DISP,192,CENTRAL,KIAMBU,LARI,KIJABE,BATHI,36.634700,-0.978523,DDP,4,MISS,,
36.6171,-1.08108,3,BIBIRIONI DISP,3731,CENTRAL,KIAMBU,LIMURU,LIMURU,BIBIRIONI,36.617100,-1.081080,1:50000 MAPS,4,MISS,,
36.6896,-1.21635,4,CHURA DISP,,CENTRAL,KIAMBU,KIKUYU,KABETE,CHURA,36.689600,-1.216350,1:50000 MAPS,4,MOH,,
36.7613,-1.1328,5,CIANDA DISP,193,CENTRAL,KIAMBU,KIAMBAA,CIANDA,CIANDA,36.761300,-1.132800,1:50000 MAPS,4,MOH,,
36.7044,-0.991187,6,GACHOIRE DISP,,CENTRAL,KIAMBU,LARI,NYANDUMA,GACHOIRE,36.704400,-0.991187,DDP,4,MOH,,
36.791234,-1.182312,7,GATHANGA DISP,931,CENTRAL,KIAMBU,KIAMBAA,WAGUTHU,GATHANGA,36.791234,-1.182312,1:50000 MAPS,4,MOH,,
36.7054,-1.06802,8,GATHANGARI DISP,,CENTRAL,KIAMBU,GITHUNGURI,GITHIGA,GITIHA,36.705400,-1.068020,1:50000 MAPS,4,MOH,,
36.8279,-1.09883,9,GIATHIEKO DISP,,CENTRAL,KIAMBU,GITHUNGURI,IKINU,RIUKI,36.827900,-1.098830,DDP,4,MOH,,
36.65,-1.27,10,GICHARANI DISP,3638,CENTRAL,KIAMBU,KIKUYU,KARAI,GIKAMBURA,36.650000,-1.270000,ILRI VILLAGES,4,MISS,,
36.6689,-1.16126,11,GICHURU DISP,198,CENTRAL,KIAMBU,LIMURU,NGECHA,NGECHA,36.668900,-1.161260,1:50000 MAPS,4,MOH,,
36.7462,-1.083,12,GITHIGA HEALTH CENTRE,2401,CENTRAL,KIAMBU,GITHUNGURI,GITHIGA,MATUGUTA,36.746200,-1.083000,DDP,3,MOH,,
36.788,-1.05339,13,GITHUNGURI HEALTH CENTRE,233,CENTRAL,KIAMBU,GITHUNGURI,GITHUNGURI,KANJAI,36.788000,-1.053390,DDP,3,MOH,,
36.6896,-1.0742,14,GITIHA HEALTH CENTRE,2398,CENTRAL,KIAMBU,GITHUNGURI,GITHIGA,GITIHA,36.689600,-1.074200,1:50000 MAPS,3,MOH,,
36.56731,-1.196205,15,HOLY CROSS (THIGIO) DISP,612,CENTRAL,KIAMBU,LIMURU,NDEIYA,THIGIO(KIAMBU),36.567310,-1.196205,SUBLOC CENTROID,4,MISS,,
36.801234,-1.14234,16,KAARIA DISP,,CENTRAL,KIAMBU,KIAMBAA,NDUMBERI,NDUMBERI,36.801234,-1.142340,1:50000 MAPS,4,MOH,,
36.7467,-1.05093,17,KAGAA HEALTH CENTRE,2400,CENTRAL,KIAMBU,GITHUNGURI,GITHUNGURI,GITHUNGURI(KIAMBU),36.746700,-1.050930,DDP,3,MOH,,
36.743433,-1.001209,18,KAGWE CATHOLIC MISSION DISP,207,CENTRAL,KIAMBU,LARI,GATAMAIYU,KAGWE,36.743433,-1.001209,ILRI MKT CENTRES,4,MISS,,
36.7392,-1.00448,19,KAGWE HEALTH CENTRE,2447,CENTRAL,KIAMBU,LARI,GATAMAIYU,KAGWE,36.739200,-1.004480,DDP,3,MOH,,
36.624,-0.870245,20,KAMAE FOREST DISP,208,CENTRAL,KIAMBU,LARI,KINALE,KINALE,36.624000,-0.870245,DDP,4,MOH,,
36.87,-1.1,21,KAMBUI DISP,209,CENTRAL,KIAMBU,GITHUNGURI,NGEWA,NYAGA,36.870000,-1.100000,ILRI VILLAGES,4,MISS,,
36.7082,-1.01588,22,KAMBURU DISP,4831,CENTRAL,KIAMBU,LARI,KAMBURU,MATIMBEI,36.708200,-1.015880,DDP,4,MOH,,
36.5765,-1.28069,23,KARAI HEALTH CENTRE,,CENTRAL,KIAMBU,KIKUYU,KARAI,NACHU,36.576500,-1.280690,DDP,3,MOH,,
36.82123,-1.174213,24,KARIA DISP,210,CENTRAL,KIAMBU,KIAMBAA,WAGUTHU,NGEGU,36.821230,-1.174213,1:50000 MAPS,4,MOH,,
36.78,-1.22,25,KARURA SDA DISP,,CENTRAL,KIAMBU,KIAMBAA,KIHARA,GACHIE,36.780000,-1.220000,ILRI VILLAGES,4,MISS,,
36.7399,-1.18431,26,KARURI HEALTH CENTRE,261,CENTRAL,KIAMBU,KIAMBAA,KIAMBAA,NJIKU,36.739900,-1.184310,DDP,3,MOH,,
36.658545,-1.122966,27,KENTMERE DISP,2413,CENTRAL,KIAMBU,LIMURU,KARAMBAINI,MABROUKE,36.658545,-1.122966,1:50000 MAPS,4,MISS,,
36.8456,-1.13999,28,KIAMBAA DISP,,CENTRAL,KIAMBU,KIAMBAA,KAMITI,ANMER,36.845600,-1.139990,DDP,4,MOH,,
36.82993,-1.16938,29,KIAMBU DISTRICT HOSPITAL,251,CENTRAL,KIAMBU,KIAMBAA,KIAMBAA S/AREA,TOWNSHIP(KIAMBAA),36.829930,-1.169380,GPS,1,MOH,,
36.702703,-1.10046,30,KIAWAROGA DISP,326,CENTRAL,KIAMBU,LIMURU,KARAMBAINI,KIAWAROGA,36.702703,-1.100460,1:50000 MAPS,4,MOH,,
36.783449,-1.157365,31,KIBUBUTI HEALTH CENTRE,2412,CENTRAL,KIAMBU,KIAMBAA,WAGUTHU,KANUNGA,36.783449,-1.157365,SUBLOC CENTROID,3,MISS,,
36.648379,-0.921169,32,KIENI FOREST DISP,215,CENTRAL,KIAMBU,LARI,KINALE,MUKEU(KIAMBU),36.648379,-0.921169,SUBLOC CENTROID,4,MOH,,
36.619369,-0.858108,33,KIENI HEALTH CENTRE,2448,CENTRAL,KIAMBU,LARI,KAMAE,KAMUKOMBI-INI,36.619369,-0.858108,1:50000 MAPS,3,MOH,,
36.82658,-1.031082,34,KIGUMO HEALTH CENTRE,237,CENTRAL,KIAMBU,GITHUNGURI,KOMOTHAI,KARATINA,36.826580,-1.031082,1:50000 MAPS,3,MOH,,
36.7386,-1.21091,35,KIHARA HEALTH CENTRE,216,CENTRAL,KIAMBU,KIAMBAA,KIHARA,MAHINDI,36.738600,-1.210910,DDP,3,MOH,,
36.59431,-0.94349,36,KIJABE HOSPITAL,252,CENTRAL,KIAMBU,LARI,KIJABE,KIJABE,36.594310,-0.943490,GPS,1,MISS,,
36.8684,-1.1077,37,KIMATHI DISP,,CENTRAL,KIAMBU,GITHUNGURI,NGEWA,KIMATHI(KIAMBU),36.868400,-1.107700,DDP,4,MOH,,
36.61036,-0.911261,38,KINALE FOREST DISP,217,CENTRAL,KIAMBU,LARI,KINALE,MUKEU(KIAMBU),36.610360,-0.911261,1:50000 MAPS,4,MOH,,
36.6157,-0.908237,39,KINALE HEALTH CENTRE,2452,CENTRAL,KIAMBU,LARI,KINALE,MUKEU(KIAMBU),36.615700,-0.908237,DDP,3,MOH,,
36.8203,-1.03614,40,KIRATINA DISP,,CENTRAL,KIAMBU,GITHUNGURI,KOMOTHAI,KARATINA,36.820300,-1.036140,DDP,4,MOH,,
36.6964,-0.985135,41,KIRIITA DISP,213,CENTRAL,KIAMBU,LARI,GATAMAIYU,KAGWE,36.696400,-0.985135,1:50000 MAPS,4,MOH,,
36.63,-0.97,42,KIRIITA MISSION HC,235,CENTRAL,KIAMBU,LARI,KIJABE,BATHI,36.630000,-0.970000,ILRI VILLAGES,3,MISS,,
36.605,-1.02791,43,LARI HEALTH CENTRE,239,CENTRAL,KIAMBU,LARI,KIRENGA,ESCARPMENT,36.605000,-1.027910,DDP,3,MOH,,
36.6366,-1.11593,44,LIMURU HEALTH CENTRE,240,CENTRAL,KIAMBU,LIMURU,LIMURU,KAMIRITHU,36.636600,-1.115930,DDP,3,MOH,,
36.830408,-1.102112,45,LIOKI MISSION DISP,3090,CENTRAL,KIAMBU,GITHUNGURI,IKINU,RIUKI,36.830408,-1.102112,SUBLOC CENTROID,4,MISS,,
36.771525,-1.192355,46,LITTLE SERVANT OF SACRET HEART D,435,CENTRAL,KIAMBU,KIAMBAA,KIAMBAA,NJORO(KIAMBU),36.771525,-1.192355,SUBLOC CENTROID,4,MISS,,
36.6136,-1.28,47,LUSIGETTI HEALTH CENTRE,2437,CENTRAL,KIAMBU,KIKUYU,KARAI,LUSINGETTI,36.613600,-1.280000,1:50000 MAPS,3,MOH,,
36.8,-1.12,48,MIGAA DISP,321,CENTRAL,KIAMBU,KIAMBAA,CIANDA,CIANDA,36.800000,-1.120000,ILRI VILLAGES,4,MOH,,
36.8,-1.07,49,MIGUTA DISP,,CENTRAL,KIAMBU,GITHUNGURI,GITHUNGURI,KIAIRIA,36.800000,-1.070000,ILRI VILLAGES,4,MISS,,
36.7,-1.18,50,MOST PRECIOUS BLOOD DISP,3903,CENTRAL,KIAMBU,LIMURU,TIGONI,RED HILL,36.700000,-1.180000,ILRI VILLAGES,4,MISS,,
36.7257,-1.13378,51,NAZARETH HOSPITAL,255,CENTRAL,KIAMBU,LIMURU,KARAMBAINI,KARAMBAINI,36.725700,-1.133780,1:50000 MAPS,1,MISS,,
36.5942,-1.16975,52,NDEIYA HEALTH CENTRE,3928,CENTRAL,KIAMBU,LIMURU,NDEIYA,NDERU,36.594200,-1.169750,DDP,3,MOH,,
36.60586,-1.142793,53,NDERU DISP,221,CENTRAL,KIAMBU,LIMURU,NDEIYA,NDERU,36.605860,-1.142793,1:50000 MAPS,4,MOH,,
36.70945,-0.984242,54,NDURIRI DISP,,CENTRAL,KIAMBU,LARI,NYANDUMA,GACHOIRE,36.709450,-0.984242,1:50000 MAPS,4,MISS,,
36.70901,-0.984685,55,NDURIRI DISP,3974,CENTRAL,KIAMBU,LARI,NYANDUMA,GACHOIRE,36.709010,-0.984685,1:50000 MAPS,4,MOH,,
36.617117,-1.069369,56,NGARARIGA MISSION DISP,3100,CENTRAL,KIAMBU,LIMURU,LIMURU,BIBIRIONI,36.617117,-1.069369,1:50000 MAPS,4,MISS,,
36.670303,-1.169356,57,NGECHA ORTHODOX  DISP,,CENTRAL,KIAMBU,LIMURU,NGECHA,NGECHA,36.670303,-1.169356,SUBLOC CENTROID,4,MISS,,
36.863964,-1.092343,58,NGEWA HEALTH CENTRE,243,CENTRAL,KIAMBU,GITHUNGURI,NGEWA,NYAGA,36.863964,-1.092343,1:50000 MAPS,3,MOH,,
36.8716,-1.10326,59,NYAGA HEALTH CENTRE,,CENTRAL,KIAMBU,GITHUNGURI,NGEWA,NYAGA,36.871600,-1.103260,DDP,3,MOH,,
36.7031,-1.20204,60,NYATHUNA HEALTH CENTRE,260,CENTRAL,KIAMBU,KIKUYU,NYATHUNA,KIRANGARI(KIAMBU),36.703100,-1.202040,DDP,3,MOH,,
36.87118,-1.049952,61,P.C.E.A GATHIRUINI DISP,,CENTRAL,KIAMBU,GITHUNGURI,KOMOTHAI,KIBICHOI,36.871180,-1.049952,SUBLOC CENTROID,4,MISS,,
36.6667,-1.26667,62,P.C.E.A. KIKUYU HOSPITAL,2441,CENTRAL,KIAMBU,KIKUYU,KIKUYU,KIKUYU TOWNSHIP,36.666700,-1.266670,DDP,1,MISS,,
36.661129,-0.790616,63,RAGIA FOREST DISP,225,CENTRAL,KIAMBU,LARI,KAMAE,KAMAE,36.661129,-0.790616,ILRI VILLAGES,4,MOH,,
36.6759,-0.791728,64,RAGIA HEALTH CENTRE,2449,CENTRAL,KIAMBU,LARI,KAMAE,KAMAE,36.675900,-0.791728,DDP,3,MOH,,
36.6,-1.18,65,THIGIO MISSION DISP,227,CENTRAL,KIAMBU,LIMURU,NDEIYA,THIGIO(KIAMBU),36.600000,-1.180000,ILRI VILLAGES,4,MISS,,
36.6493,-1.12859,66,TIGONI SUB-DISTRICT HOSPITAL,257,CENTRAL,KIAMBU,LIMURU,TIGONI,ITHANJI(KIAMBU),36.649300,-1.128590,DDP,1,MOH,,
36.8083,-1.13366,67,TIN'GAN'GA DISP,229,CENTRAL,KIAMBU,KIAMBAA,TING'ANG'A,TING'ANG'A,36.808300,-1.133660,DDP,4,MISS,,
36.6778,-1.04691,68,UPLANDS DISP,230,CENTRAL,KIAMBU,LARI,LARI,GITHIRIONI,36.677800,-1.046910,DDP,4,MOH,,
36.7086,-1.2526,69,UTHIRU DISP,231,CENTRAL,KIAMBU,KIKUYU,KINOO,UTHIRU(KIAMBU),36.708600,-1.252600,1:50000 MAPS,4,MOH,,
36.7261,-1.21737,70,WANGIGE HEALTH CENTRE,249,CENTRAL,KIAMBU,KIKUYU,NYATHUNA,KARURA(KIKUYU),36.726100,-1.217370,1:50000 MAPS,3,MOH,,
37.2305,-0.563405,1,BARICHO HEALTH CENTRE,297,CENTRAL,KIRINYAGA,NDIA,MWERUA,KIANJANG'A,37.230500,-0.563405,DDP,3,MOH,,
37.2387,-0.568805,2,BARICHO MISS H C,3082,CENTRAL,KIRINYAGA,NDIA,MWERUA,KIANJANG'A,37.238700,-0.568805,HD MAPS,3,MISS,,
37.351234,-0.42234,3,CASTLE FOREST DISP,3763,CENTRAL,KIRINYAGA,GICHUGU,KARUMANDI,THUMAITA,37.351234,-0.422340,1:50000 MAPS,4,MOH,,
37.2597,-0.49407,4,CHRISTIAN COMMUNITY SERVICES BAS,,CENTRAL,KIRINYAGA,CENTRAL,INOI,NDIMI,37.259700,-0.494070,HD MAPS,4,MISS,,
37.3783,-0.75776,5,CIAGINI DISP,86,CENTRAL,KIRINYAGA,MWEA,THIBA,WAMUMU,37.378300,-0.757760,HD MAPS,4,MOH,,
37.400901,-0.551802,6,DIFATHAAS CATHOLIC DISP,4713,CENTRAL,KIRINYAGA,MWEA,MURINDUKO,KAMUNYANGE,37.400901,-0.551802,1:50000 MAPS,4,MISS,,
37.4125,-0.59514,7,DIFATHAS DISP,263,CENTRAL,KIRINYAGA,MWEA,MURINDUKO,KAMUNYANGE,37.412500,-0.595140,HD MAPS,4,MOH,,
37.4056,-0.50091,8,GACHIONGO DISP,264,CENTRAL,KIRINYAGA,GICHUGU,NJUKIINI,NGIRIAMBU,37.405600,-0.500910,HD MAPS,4,MOH,,
37.2483,-0.48343,9,GATHAMBI DISP,265,CENTRAL,KIRINYAGA,CENTRAL,INOI,NDIMI,37.248300,-0.483430,HD MAPS,4,MOH,,
37.4391,-0.71293,10,GATHIGIRIRI DISP,266,CENTRAL,KIRINYAGA,MWEA,TEBERE,KARUKUNGU,37.439100,-0.712930,HD MAPS,4,MOH,,
,,,GATITHI DISP,,CENTRAL,KIRINYAGA,CENTRAL,KERUGOYA,KAGUYU,,,,4,MISS,,
37.316,-0.45683,11,GATUGURA DISP,267,CENTRAL,KIRINYAGA,GICHUGU,KIRIMA,MUTIGE,37.316000,-0.456830,HD MAPS,4,MOH,,
37.3798,-0.45759,12,GATUMBI S D A DISP,268,CENTRAL,KIRINYAGA,GICHUGU,NGARIAMA,THIRIKWA,37.379800,-0.457590,HD MAPS,4,MISS,,
37.284,-0.46443,13,GATWE DISP,269,CENTRAL,KIRINYAGA,CENTRAL,KERUGOYA,KIMANDI,37.284000,-0.464430,HD MAPS,4,MOH,,
37.38695,-0.497068,14,GIRIAMBU ACK DISP,,CENTRAL,KIRINYAGA,GICHUGU,NJUKIINI,NGIRIAMBU,37.386950,-0.497068,SUBLOC CENTROID,4,MISS,,
37.1792,-0.62098,15,GITHUANI C P K DISP,4716,CENTRAL,KIRINYAGA,NDIA,KIINE SOUTH,THIGIRICHI,37.179200,-0.620980,HD MAPS,4,MISS,,
37.3836,-0.47051,16,GITHURE DISP,4724,CENTRAL,KIRINYAGA,GICHUGU,NGARIAMA,THIRIKWA,37.383600,-0.470510,HD MAPS,4,MISS,,
37.3988,-0.5237,17,JESMOND MBURI DISP,,CENTRAL,KIRINYAGA,GICHUGU,NJUKIINI,MIRICHI,37.398800,-0.523700,HD MAPS,4,MISS,,
37.3175,-0.51458,18,KABARE DISP,270,CENTRAL,KIRINYAGA,GICHUGU,KABARE,KIRITINI,37.317500,-0.514580,HD MAPS,4,MOH,,
37.227,-0.63009,19,KAGIO CATHOLIC DISP,271,CENTRAL,KIRINYAGA,NDIA,MWERUA,KITHUMBU,37.227000,-0.630090,HD MAPS,4,MISS,,
37.23641,-0.47139,20,KAGUMO DISP,272,CENTRAL,KIRINYAGA,NDIA,MUTIRA,KABARI(NDIA),37.236410,-0.471390,GPS,4,MOH,,
,,,KAGUMO LIFE GIVING DISP,,CENTRAL,KIRINYAGA,NDIA,MUTIRA,KIRUNDA,,,,4,MISS,,
37.3099,-0.44391,21,KAMWETI DISP,274,CENTRAL,KIRINYAGA,GICHUGU,KIRIMA,NJUKU,37.309900,-0.443910,HD MAPS,4,MOH,,
37.3038,-0.66505,22,KANDONGO DISP,275,CENTRAL,KIRINYAGA,MWEA,THIBA,NGUKA,37.303800,-0.665050,HD MAPS,4,MOH,,
37.2719,-0.48951,23,KANGAITA DISP,276,CENTRAL,KIRINYAGA,CENTRAL,KERUGOYA,KAGUYU(CENTRAL),37.271900,-0.489510,HD MAPS,4,MOH,,
37.221234,-0.582134,24,KANGARU HEALTH CENTRE,908,CENTRAL,KIRINYAGA,NDIA,MWERUA,MAITHARUI,37.221234,-0.582134,1:50000 MAPS,3,MOH,,
37.2726,-0.50243,25,KARAINI C P K DISP,4719,CENTRAL,KIRINYAGA,CENTRAL,KERUGOYA,KAGUYU(CENTRAL),37.272600,-0.502430,HD MAPS,4,MISS,,
,,26,KARIRA HOSPITAL,391,CENTRAL,KIRINYAGA,,,,,,,1,MISS,,
37.3456,-0.45683,27,KARUMANDI DISP,277,CENTRAL,KIRINYAGA,GICHUGU,KARUMANDI,KIARURI,37.345600,-0.456830,HD MAPS,4,MOH,,
37.27838,-0.49509,28,KERUGOYA CATHOLIC DISP,278,CENTRAL,KIRINYAGA,CENTRAL,KERUGOYA,KAGUYU(CENTRAL),37.278380,-0.495090,GPS,4,MISS,,
37.27819,-0.50107,29,KERUGOYA CPK DISP,279,CENTRAL,KIRINYAGA,CENTRAL,KERUGOYA,KAGUYU(CENTRAL),37.278190,-0.501070,GPS,4,MISS,,
37.2805,-0.50132,30,KERUGOYA DISTRICT HOSPITAL,301,CENTRAL,KIRINYAGA,CENTRAL,KERUGOYA,KAGUYU(CENTRAL),37.280500,-0.501320,GPS,1,MOH,,
37.4018,-0.47279,31,KIAMUTUGU HEALTH CENTRE,280,CENTRAL,KIRINYAGA,GICHUGU,NJUKIINI,NGERWE,37.401800,-0.472790,HD MAPS,3,MOH,,
37.3,-0.48,32,KIANDAI ACK DISP,4721,CENTRAL,KIRINYAGA,GICHUGU,KIRIMA,GACHIGI,37.300000,-0.480000,ILRI VILLAGES,4,MISS,,
37.2073,-0.48115,33,KIANGAI DISP,281,CENTRAL,KIRINYAGA,NDIA,MUKURE,MUKURE,37.207300,-0.481150,HD MAPS,4,MOH,,
37.3129,-0.49635,34,KIANG'OMBE DISP,282,CENTRAL,KIRINYAGA,GICHUGU,KABARE,KIRITINI,37.312900,-0.496350,HD MAPS,4,MOH,,
37.1624,-0.5883,35,KIANJEGE DISP,283,CENTRAL,KIRINYAGA,NDIA,KIINE SOUTH,NYANGIO,37.162400,-0.588300,HD MAPS,4,MOH,,
37.3296,-0.50091,36,KIANYAGA H C,299,CENTRAL,KIRINYAGA,GICHUGU,BARAGWI,GATU,37.329600,-0.500910,HD MAPS,3,MOH,,
37.3426,-0.51079,37,KIANYAGA MISS H C,3081,CENTRAL,KIRINYAGA,GICHUGU,BARAGWI,RWAMBITI,37.342600,-0.510790,HD MAPS,3,MISS,,
37.2035,-0.51231,38,KIARAGANA DISP,284,CENTRAL,KIRINYAGA,NDIA,MUKURE,KANYOKORA,37.203500,-0.512310,HD MAPS,4,MOH,,
37.1495,-0.55638,39,KIBIRIGWI DISP,285,CENTRAL,KIRINYAGA,NDIA,KIINE SOUTH,NYANGIO,37.149500,-0.556380,HD MAPS,4,MOH,,
37.3651,-0.61705,40,KIMBIMBI HEALTH CENTRE,300,CENTRAL,KIRINYAGA,MWEA,NYANGATI,NYANGATI,37.365100,-0.617050,GPS,3,MOH,,
,,,KIUMBU DISP,,CENTRAL,KIRINYAGA,NDIA,INOI,THAITA,,,,4,MISS,,
37.474,-0.72129,41,KIUMBUINI DISP,286,CENTRAL,KIRINYAGA,MWEA,TEBERE,KARUKUNGU,37.474000,-0.721290,HD MAPS,4,MOH,,
37.32517,-0.56432,42,KUTUS CATHOLIC DISP,4714,CENTRAL,KIRINYAGA,CENTRAL,KUTUS,KAMUIGUA,37.325170,-0.564320,GPS,4,MISS,,
,,,MAGDALENE ACK DISP,,CENTRAL,KIRINYAGA,GICHUGU,NGARIAMA,NYANGENI,,,,4,MISS,,
37.4,-0.48,43,MBIRI ACK DISP,4727,CENTRAL,KIRINYAGA,GICHUGU,NJUKIINI,NGERWE,37.400000,-0.480000,ILRI VILLAGES,4,MISS,,
37.29279,-0.52252,44,MBURI ACK DISP,4729,CENTRAL,KIRINYAGA,CENTRAL,KERUGOYA,KAITHERI,37.292790,-0.522520,1:50000 MAPS,4,MISS,,
,,,MT KENYA EAST ACK DISP,,CENTRAL,KIRINYAGA,GICHUGU,NGARIAMA,NYANGENI,,,,4,MISS,,
37.30495,-0.432433,45,MUGUMO (ACK) DISP,4720,CENTRAL,KIRINYAGA,GICHUGU,KIRIMA,NJUKU,37.304950,-0.432433,1:50000 MAPS,4,MISS,,
37.4634,-0.67797,46,MUMBUINI DISP,3860,CENTRAL,KIRINYAGA,MWEA,MURINDUKO,MIUU,37.463400,-0.677970,HD MAPS,4,MOH,,
37.254,-0.621,47,MUNGANGA CPK DISP,289,CENTRAL,KIRINYAGA,NDIA,MWERUA,KITHUMBU,37.254000,-0.621000,ILRI MKT CENTRES,4,MISS,,
37.44077,-0.57294,48,MURINDUKO DISP,3035,CENTRAL,KIRINYAGA,MWEA,MURINDUKO,MUGAMBA-CIURA,37.440770,-0.572940,GPS,4,MOH,,
37.3038,-0.73269,49,MUTHITHI DISP,290,CENTRAL,KIRINYAGA,MWEA,MUTITHI,KABIRIRI,37.303800,-0.732690,HD MAPS,4,MOH,,
37.23,-0.48,50,MUTIRA ACK DISP,4718,CENTRAL,KIRINYAGA,NDIA,MUTIRA,KAGUMO(KIRINYAGA),37.230000,-0.480000,ILRI VILLAGES,4,MISS,,
,,,MUTITHI DISP,,CENTRAL,KIRINYAGA,MWEA,TEBERE,KIARUKUNGU,,,,4,MOH,,
37.34924,-0.66137,52,MWEA MISS HOSPITAL,302,CENTRAL,KIRINYAGA,MWEA,THIBA,NGUKA,37.349240,-0.661370,GPS,1,MISS,,
,,,NGARIAMA DISP,,CENTRAL,KIRINYAGA,MWEA,MUTITHI,WAMUMU,,,,4,MOH,,
37.3828,-0.50167,53,NGIRIAMBU DISP,4728,CENTRAL,KIRINYAGA,GICHUGU,NJUKIINI,NGIRIAMBU,37.382800,-0.501670,HD MAPS,4,MISS,,
37.316,-0.68633,54,NGUKA DISP,292,CENTRAL,KIRINYAGA,MWEA,THIBA,THIBA,37.316000,-0.686330,HD MAPS,4,MOH,,
37.2924,-0.70913,55,NJEGAS DISP,293,CENTRAL,KIRINYAGA,MWEA,MUTITHI,KABIRIRI,37.292400,-0.709130,HD MAPS,4,MOH,,
37.2187,-0.67113,56,SAGANA H C,304,CENTRAL,KIRINYAGA,NDIA,KIINE SOUTH,SAGANA(KIRINYAGA),37.218700,-0.671130,HD MAPS,3,MOH,,
37.2308,-0.65213,57,SAGANA MISS DISP,294,CENTRAL,KIRINYAGA,NDIA,KIINE SOUTH,SAGANA(KIRINYAGA),37.230800,-0.652130,HD MAPS,4,MISS,,
37.3258,-0.51838,58,ST ANDREWS MBIRI DISP,3972,CENTRAL,KIRINYAGA,GICHUGU,KABARE,KIRITINI,37.325800,-0.518380,HD MAPS,4,MISS,,
37.262,-0.72281,59,ST LUKE'S MUNGAGA DISP,,CENTRAL,KIRINYAGA,MWEA,MUTITHI,RUKANGA(KIRINYAGA),37.262000,-0.722810,HD MAPS,4,MISS,,
,,60,ST LUKES MURIGARIGA DISP,,CENTRAL,KIRINYAGA,,,,,,,4,MISS,,
,,,ST TERESA DISP,,CENTRAL,KIRINYAGA,MWEA,MUTITHI,WAMUMU,,,,4,MOH,,
37.3327,-0.70457,61,THIBA DISP,295,CENTRAL,KIRINYAGA,MWEA,THIBA,THIBA,37.332700,-0.704570,HD MAPS,4,MOH,,
37.3585,-0.43935,62,THUMAITA DISP,4723,CENTRAL,KIRINYAGA,GICHUGU,KARUMANDI,THUMAITA,37.358500,-0.439350,HD MAPS,4,MISS,,
36.852509,-0.739723,1,AIC MUNUNGA DISP,389,CENTRAL,MARAGUA,KIGUMO,KINYONA,GACHARAGE(KIGUMO),36.852509,-0.739723,ILRI MKT CENTRES,4,MISS,,
37.19762,-0.9064,2,DON BOSCO MAKUYU DISP,4162,CENTRAL,MARAGUA,MAKUYU,MAKUYU,GAKUNGU,37.197620,-0.906400,GPS,4,MISS,,
36.977445,-0.852765,3,GAICHANJIRU MISSION HOSPITAL,388,CENTRAL,MARAGUA,KANDARA,ITHIRU,GAKUI/KARIMAMWARO,36.977445,-0.852765,DHMT,1,MISS,,
36.9013,-0.761775,4,GIKOE DISP,315,CENTRAL,MARAGUA,KIGUMO,KINYONA,KAMUKABI,36.901300,-0.761775,1:50000 MAPS,4,MOH,,
36.9,-0.82,5,GITHUMU HEALTH CENTRE,,CENTRAL,MARAGUA,KANDARA,RUCHU,GITHUMU,36.900000,-0.820000,ILRI VILLAGES,3,MISS,,
36.8668,-0.81464,6,GITURU DISP,320,CENTRAL,MARAGUA,KANDARA,RUCHU,GITURU,36.866800,-0.814640,1:50000 MAPS,4,MISS,,
37.070665,-0.816915,7,ICHAGAKI HEALTH CENTRE,390,CENTRAL,MARAGUA,MARAGUA,ICHAGAKI,ICHAGAKI,37.070665,-0.816915,DHMT,3,MISS,,
37.080265,-0.891818,,KAGUMOINI DISP,,CENTRAL,MARAGUA,KANDARA,GAICHANJIRU,KAGUMOINI(MARAGUA),37.080265,-0.891818,DHMT,4,MOH,,
36.96123,-0.881234,8,KAGUTHI DISP,2710,CENTRAL,MARAGUA,KANDARA,ITHIRU,KAGUTHI,36.961230,-0.881234,1:50000 MAPS,4,MOH,,
37.07856,-0.85942,9,KAGWATHI SDA DISP,,CENTRAL,MARAGUA,MARAGUA,KAHUMBU,MUGUMOINI(MARAG),37.078560,-0.859420,GPS,4,MISS,,
37.17814,-0.84289,10,KAMAHUHA DISP,328,CENTRAL,MARAGUA,MAKUYU,KAMAHUHA,KAMAHUHA,37.178140,-0.842890,GPS,4,MOH,,
37.25123,-0.812354,11,KAMBITI DISP,3367,CENTRAL,MARAGUA,MAKUYU,KAMBITI,KAMBITI(MARAGUA),37.251230,-0.812354,1:50000 MAPS,4,MOH,,
36.976049,-0.785806,,KAMUNGANGA DISP,4844,CENTRAL,MARAGUA,KIGUMO,KIGUMO,GACHOCHO,36.976049,-0.785806,DHMT,4,MISS,,
37.038699,-0.897239,12,KANDARA HEALTH CENTRE,377,CENTRAL,MARAGUA,KANDARA,MURUKA,GATITU/NGUTHIRU,37.038699,-0.897239,DHMT,3,MOH,,
36.797738,-0.781589,,KANDERENDU DISP,,CENTRAL,MARAGUA,KIGUMO,KANGARI,MAKOMBOKI,36.797738,-0.781589,DHMT,4,MOH,,
36.851234,-0.781234,13,KANGARI DISP,330,CENTRAL,MARAGUA,KIGUMO,KANGARI,KANGARI,36.851234,-0.781234,1:50000 MAPS,4,MOH,,
37.01707,-0.86633,14,KARITI DISP,2709,CENTRAL,MARAGUA,KANDARA,KAGUNDUINI,KARITI,37.017070,-0.866330,GPS,4,MOH,,
36.97549,-0.83194,15,KARIUA DISP,333,CENTRAL,MARAGUA,KANDARA,RUCHU,KARIUA,36.975490,-0.831940,GPS,4,MOH,,
36.827,-0.748188,16,KINYONA DISP,343,CENTRAL,MARAGUA,KIGUMO,KINYONA,KINYONA,36.827000,-0.748188,1:50000 MAPS,4,MISS,,
37.18661,-0.89406,17,MAKUYU HEALTH CENTRE,384,CENTRAL,MARAGUA,MAKUYU,MAKUYU,MAKUYU,37.186610,-0.894060,GPS,3,MOH,,
37.12663,-0.78693,18,MARAGUA DISTRICT HOSPITAL (RHTC),395,CENTRAL,MARAGUA,MARAGUA,NGINDA,GAKOIGO,37.126630,-0.786930,GPS,1,MOH,,
37.2,-0.77,19,MARAGUA RIDGE HEALTH CENTRE,348,CENTRAL,MARAGUA,MARAGUA,MARAGUA RIDGE,MARAGUA RIDGE,37.200000,-0.770000,ILRI VILLAGES,3,MOH,,
37.209983,-0.803599,20,MARANJAU GK PRISON DISP,361,CENTRAL,MARAGUA,MAKUYU,KAMBITI,MARANJAU,37.209983,-0.803599,DHMT,4,MOH,,
36.9348,-0.79846,21,MARIRA DISP,350,CENTRAL,MARAGUA,KIGUMO,KANGARI,MARIIRA,36.934800,-0.798460,1:50000 MAPS,4,MISS,,
37.0772,-0.84768,23,MUGUMOINI DISP,358,CENTRAL,MARAGUA,MARAGUA,KAHUMBU,MUGUMOINI(MARAG),37.077200,-0.847680,GPS,4,MOH,,
37.05976,-0.92799,25,MURUKA DISP,3414,CENTRAL,MARAGUA,KANDARA,MURUKA,MURUKA,37.059760,-0.927990,GPS,4,MOH,,
36.951802,-0.817568,26,MUTHERU DISP,363,CENTRAL,MARAGUA,KANDARA,RUCHU,GACHARAGE(KANDARA),36.951802,-0.817568,1:50000 MAPS,4,MOH,,
37.0485,-0.810626,27,MUTHITHI DISP,364,CENTRAL,MARAGUA,MARAGUA,ICHAGAKI,GIKOMORA,37.048500,-0.810626,1:50000 MAPS,4,MISS,,
37.044121,-0.801467,,MUTHITHI DISP,,CENTRAL,MARAGUA,MARAGUA,ICHAGAKI,GIKOMORA,37.044121,-0.801467,DHMT,4,MOH,,
37.0322,-0.93433,28,NAARO DISP,367,CENTRAL,MARAGUA,KANDARA,MURUKA,NAARO,37.032200,-0.934330,1:50000 MAPS,4,MOH,,
37.0593,-0.87088,29,NGURUWENI DISP,368,CENTRAL,MARAGUA,KANDARA,GAICHANJIRU,NGURWE-INI,37.059300,-0.870880,GPS,4,MOH,,
37.00208,-0.89808,31,RUCHU DISP,372,CENTRAL,MARAGUA,KANDARA,ITHIRU,KIIRI,37.002080,-0.898080,GPS,4,MISS,,
37.15,-0.87,32,SABASABA (CATHOLIC ) DISP,3641,CENTRAL,MARAGUA,MAKUYU,KAMAHUHA,SABA SABA,37.150000,-0.870000,ILRI VILLAGES,4,MISS,,
37.1361,-0.87501,33,SABASABA SUB HEALTH CENTRE,373,CENTRAL,MARAGUA,MARAGUA,KAHUMBU,KANDANI,37.136100,-0.875010,GPS,3,MOH,,
36.892918,-0.776771,,TATA HANAH DISP,,CENTRAL,MARAGUA,KIGUMO,KINYONA,KINYONA,36.892918,-0.776771,DHMT,4,MISS,,
36.8478,-0.61184,1,GACHARAGENI DISP,305,CENTRAL,MURANGA,MATHIOYA,NJUMBI,KIAMUTURI,36.847800,-0.611840,DDP,4,MOH,,
37.0161,-0.627688,2,GAKURWE DISP,306,CENTRAL,MURANGA,KIHARU,GATURI,GATHUKIINI,37.016100,-0.627688,1:50000 MAPS,4,MOH,,
36.93,-0.7,4,GATANGARA DISP,309,CENTRAL,MURANGA,KANGEMA,KANYENYAINI,KIBUTHA,36.930000,-0.700000,DHMT,4,MOH,,
36.86,-0.72,5,GATARA DISP,352,CENTRAL,MURANGA,KANGEMA,KIRURI,ICHICHI,36.860000,-0.720000,DHMT,4,MOH,,
36.8923,-0.740291,6,GATHAITHI DISP,311,CENTRAL,MURANGA,KAHURO,MURARANDIA,GATHAITHI(MURANGA),36.892300,-0.740291,DDP,4,MOH,,
,,,GATHERA DISP,,CENTRAL,MURANGA,KANGEMA,IYEGO,GIKUI,,,,4,MISS,,
37.0632,-0.728944,8,GATHERU DISP,312,CENTRAL,MURANGA,KAHURO,KAHUHIA,GATHERU,37.063200,-0.728944,1:50000 MAPS,4,MOH,,
37.10059,-0.64613,10,GATURI DISP,313,CENTRAL,MURANGA,KIHARU,GATURI,GEITWA/MUGEKA,37.100590,-0.646130,GPS,4,MISS,,
37.014,-0.676591,11,GIKUI DISP,316,CENTRAL,MURANGA,KANGEMA,IYEGO,GIKUI(MURANGA),37.014000,-0.676591,1:50000 MAPS,4,MOH,,
37.07393,-0.74295,12,GITARO DISP,317,CENTRAL,MURANGA,KAHURO,MUGOIRI,GATUNDU(MURANGA),37.073930,-0.742950,GPS,4,MOH,,
37.1018,-0.62973,14,GITHANGA DISP,4318,CENTRAL,MURANGA,KIHARU,GATURI,GEITWA/MUGEKA,37.101800,-0.629730,1:50000 MAPS,4,MISS,,
37.0255,-0.655967,16,GITUGI DISP,319,CENTRAL,MURANGA,MATHIOYA,GITUGI,GITUGI(MURANGA),37.025500,-0.655967,1:50000 MAPS,4,MOH,,
36.8387,-0.704469,17,ICHICHI DISP,322,CENTRAL,MURANGA,KANGEMA,KIRURI,ICHICHI,36.838700,-0.704469,DDP,4,MOH,,
37.028378,-0.596847,18,IRURI DISP,323,CENTRAL,MURANGA,MATHIOYA,KAMACHARIA,THUITA(MURANGA),37.028378,-0.596847,1:50000 MAPS,4,MOH,,
36.9821,-0.620072,19,KAGUMOINI DISP,325,CENTRAL,MURANGA,MATHIOYA,KIRU,KAGUMOINI(MURANGA),36.982100,-0.620072,1:50000 MAPS,4,MOH,,
37.04,-0.71,,KAHUHIA ACK DISP,,CENTRAL,MURANGA,KAHURO,KAHUHIA,KIROGO,37.040000,-0.710000,DHMT,4,MISS,,
36.8629,-0.610663,21,KAIRO DISP,327,CENTRAL,MURANGA,MATHIOYA,KIRU,KAIRO,36.862900,-0.610663,1:50000 MAPS,4,MOH,,
37.1921,-0.741239,22,KAMBIRWA DISP,329,CENTRAL,MURANGA,KIHARU,GIKINDU,KAMBIRWA,37.192100,-0.741239,1:50000 MAPS,4,MOH,,
36.97065,-0.68709,23,KANGEMA HEALTH CENTRE,378,CENTRAL,MURANGA,KANGEMA,MUGURU,GAKIRA,36.970650,-0.687090,GPS,3,MOH,,
36.9522,-0.619082,24,KANJAMA DISP,2713,CENTRAL,MURANGA,MATHIOYA,KIRU,KANJAMA,36.952200,-0.619082,1:50000 MAPS,4,MOH,,
36.8829,-0.686016,25,KANYENYAINI DISP,331,CENTRAL,MURANGA,KANGEMA,KANYENYAINI,KANYENYAINI,36.882900,-0.686016,DDP,4,MOH,,
37.12342,-0.751234,26,KARAHA DISP,4594,CENTRAL,MURANGA,KIHARU,MBIRI,MUCHUNGUCHA,37.123420,-0.751234,DISTRICT ESTIMATES,4,MISS,,
37.0636,-0.697581,27,KIAMARA DISP,334,CENTRAL,MURANGA,KANGEMA,IYEGO,GACHARAIGU,37.063600,-0.697581,1:50000 MAPS,4,MOH,,
37.118469,-0.760811,28,KIANGOCHI DISP,335,CENTRAL,MURANGA,KIHARU,MBIRI,MUCHUNGUCHA,37.118469,-0.760811,1:50000 MAPS,4,MOH,,
36.98927,-0.69231,29,KIANGUNYI MISSION DISP,336,CENTRAL,MURANGA,KANGEMA,MUGURU,WATUHA,36.989270,-0.692310,GPS,4,MISS,,
36.91892,-0.698198,30,KIBUTHA DISP,337,CENTRAL,MURANGA,KANGEMA,KANYENYAINI,KIBUTHA,36.918920,-0.698198,1:50000 MAPS,4,MOH,,
37.162341,-0.673212,31,KIGETUINI DISP,338,CENTRAL,MURANGA,KIHARU,GATURI,KIMATHI(MURANGA),37.162341,-0.673212,1:50000 MAPS,4,MOH,,
36.88874,-0.648649,32,KIHOYA DISP,340,CENTRAL,MURANGA,MATHIOYA,RWATHIA,KIHOYA,36.888740,-0.648649,1:50000 MAPS,4,MOH,,
36.97,-0.61,,KIHURO ACK DISP,,CENTRAL,MURANGA,MATHIOYA,KIRU,KAGUMOINI(MURANGA),36.970000,-0.610000,DHMT,4,MISS,,
37.0672,-0.767812,34,KIRIA DISP,344,CENTRAL,MURANGA,KAHURO,MUGOIRI,KIRIA(MURANGA),37.067200,-0.767812,1:50000 MAPS,4,MOH,,
36.95155,-0.59941,35,KIRIAINI DISP,345,CENTRAL,MURANGA,MATHIOYA,KIRU,KIRIAINI(MURANGA),36.951550,-0.599410,GPS,4,MOH,,
36.9482,-0.597467,36,KIRIAINI MISS. HOSPITAL,2379,CENTRAL,MURANGA,MATHIOYA,KIRU,KIRIAINI(MURANGA),36.948200,-0.597467,DDP,1,MISS,,
37.02947,-0.71178,37,KIROGO HEALTH CENTRE,381,CENTRAL,MURANGA,KAHURO,KAHUHIA,KIROGO,37.029470,-0.711780,GPS,3,MOH,,
36.96,-0.66,,MIHUTI DISP,,CENTRAL,MURANGA,MATHIOYA,GITUGI,MIHUTI(MURANGA),36.960000,-0.660000,DHMT,4,MISS,,
37.09145,-0.63969,42,MUGEKA HEALTH CENTRE,354,CENTRAL,MURANGA,KIHARU,GATURI,GEITWA/MUGEKA,37.091450,-0.639690,GPS,3,MOH,,
37.02561,-0.74839,43,MUGOIRI  MISSION DISP,356,CENTRAL,MURANGA,KAHURO,MUGOIRI,KAHURO,37.025610,-0.748390,GPS,4,MISS,,
37.15985,-0.71587,45,MURANGA DISTRICT HOSPITAL,393,CENTRAL,MURANGA,KIHARU,TOWNSHIP,KARURI(MURANGA),37.159850,-0.715870,GPS,1,MOH,,
36.8958,-0.718632,46,MURARANDIA DISP,362,CENTRAL,MURANGA,KAHURO,MURARANDIA,MURARANDIA,36.895800,-0.718632,1:50000 MAPS,4,MOH,,
36.97306,-0.74315,47,MURIRANJAS SUB-DISTRICT HOSP.,394,CENTRAL,MURANGA,KAHURO,MUGOIRI,KAHURO,36.973060,-0.743150,GPS,1,MOH,,
36.95746,-0.63943,48,NYAKIANGA DISP,369,CENTRAL,MURANGA,MATHIOYA,NJUMBI,NJUMBI,36.957460,-0.639430,GPS,4,MOH,,
36.9328,-0.659602,49,RWATHIA DISP,2712,CENTRAL,MURANGA,MATHIOYA,RWATHIA,RWATHIA,36.932800,-0.659602,DDP,4,MOH,,
36.831081,-0.6667,50,TUTHU SUB HEALTH CENTRE,386,CENTRAL,MURANGA,KANGEMA,KIRURI,TUTHU,36.831081,-0.666700,1:50000 MAPS,3,MOH,,
36.98123,-0.591234,51,WAHUNDURA DISP,3398,CENTRAL,MURANGA,MATHIOYA,KAMACHARIA,KAMUNE,36.981230,-0.591234,DISTRICT ESTIMATES,4,MOH,,
37.0117,-0.724185,52,WANJENGI DISP,375,CENTRAL,MURANGA,KAHURO,WEITHAGA,WANJENGI,37.011700,-0.724185,1:50000 MAPS,4,MOH,,
36.84123,-0.651234,53,WANJERERE DISP,374,CENTRAL,MURANGA,MATHIOYA,RWATHIA,WANJERERE,36.841230,-0.651234,1:50000 MAPS,4,MOH,,
36.97671,-0.71253,54,WEITHAGA DISP,3396,CENTRAL,MURANGA,KAHURO,WEITHAGA,KAHUTI,36.976710,-0.712530,GPS,4,MISS,,
36.627174,-0.767321,64,AIC MUKEU DISP,,CENTRAL,NYANDARUA,SOUTH KINANGOP,NYAKIO,MUKEU(NYANDA),36.627174,-0.767321,SUBLOC CENTROID,4,MISS,,
36.4433,-0.002742,1,BAARI DISP,166,CENTRAL,NYANDARUA,NDARAGWA,LESHAU,KARAGOINI,36.443300,-0.002742,DDP,4,MOH,,
36.5714,-0.833952,2,BAMBOO DISP,3940,CENTRAL,NYANDARUA,SOUTH KINANGOP,MAGUMU,MATURA(S. KINANGOP),36.571400,-0.833952,DDP,4,MOH,,
36.5919,-0.610526,3,ENGINEER HEALTH CENTRE,398,CENTRAL,NYANDARUA,NORTH KINANGOP,ENGINEER,GATHARA,36.591900,-0.610526,DDP,3,MOH,,
36.5604,-0.35786,4,GETA BUSH DISP,399,CENTRAL,NYANDARUA,KIPIPIRI,WANJOHI,WANJOHI,36.560400,-0.357860,DDP,4,MOH,,
36.628,-0.486639,5,GETA FOREST DISP,400,CENTRAL,NYANDARUA,NORTH KINANGOP,NORTH KINANGOP,NANDARASI,36.628000,-0.486639,DDP,4,MOH,,
36.5669,-0.801432,6,HENI DISP,402,CENTRAL,NYANDARUA,SOUTH KINANGOP,MAGUMU,KARATI(NYANDARUA),36.566900,-0.801432,DDP,4,MOH,,
36.5467,-0.030709,23,HOLY FAMILY CATHOLIC DISP,3603,CENTRAL,NYANDARUA,NDARAGWA,KAHUTHA,MURICHO,36.546700,-0.030709,DDP,4,MISS,,
36.4771,0.039534,8,KAHEMBE DISP,4506,CENTRAL,NYANDARUA,NDARAGWA,MATHINGIRA,NDIVAI,36.477100,0.039534,DDP,4,MOH,,
36.419674,-0.210357,,KAIMBAGA DISP,,CENTRAL,NYANDARUA,OL KALOU,RURII,RURII,36.419674,-0.210357,DHMT,4,MOH,,
36.6182,-0.78127,9,KARANGATHA HEALTH CENTRE,427,CENTRAL,NYANDARUA,SOUTH KINANGOP,NYAKIO,KARANGATHA,36.618200,-0.781270,DDP,3,MOH,,
36.5649,-0.882732,10,KENTON GITWE DISP,3281,CENTRAL,NYANDARUA,SOUTH KINANGOP,MAGUMU,GITWE(NYANDARUA),36.564900,-0.882732,DDP,4,MOH,,
36.569856,-0.421866,11,KIHINGO CATHOLIC DISP,4542,CENTRAL,NYANDARUA,KIPIPIRI,GETA,MAKUMBI,36.569856,-0.421866,ILRI MKT CENTRES,4,MISS,,
36.4765,-0.186805,12,KIRIMA DISP,403,CENTRAL,NYANDARUA,NDARAGWA,SHAMATA,KIRIMA(NYANDARUA),36.476500,-0.186805,DDP,4,MOH,,
36.421123,-0.092321,13,LESHAU PONDO HEALTH CENTRE,428,CENTRAL,NYANDARUA,OL JORO OROK,WERU,GATUMBIRO(NYAND),36.421123,-0.092321,1:50000 MAPS,3,MOH,,
36.3269,-0.144529,15,MAINA & MWANGI HEALTH CENTRE,429,CENTRAL,NYANDARUA,OL JORO OROK,OL JORO OROK,NYAIROKO,36.326900,-0.144529,DDP,3,MOH,,
36.432321,0.062321,16,MAINA VILLAGE DISP,3211,CENTRAL,NYANDARUA,NDARAGWA,KIRIITA,SHAURI,36.432321,0.062321,1:50000 MAPS,4,MOH,,
36.4953,-0.35786,17,MANUNGA DISP,404,CENTRAL,NYANDARUA,KIPIPIRI,WANJOHI,WANJOHI,36.495300,-0.357860,DDP,4,MOH,,
36.3223,-0.34225,18,MAWINGU DISP,,CENTRAL,NYANDARUA,OL KALOU,OL KALOU,MAWINGO(NYANDA),36.322300,-0.342250,DDP,4,MOH,,
36.254,-0.206317,19,MIRANGINE HEALTH CENTRE,431,CENTRAL,NYANDARUA,OL KALOU,NDUNDORI,MELANGINE,36.254000,-0.206317,DDP,3,MOH,,
36.4882,-0.605662,21,MURUNGARU DISP,405,CENTRAL,NYANDARUA,NORTH KINANGOP,ENGINEER,MURUNGARU,36.488200,-0.605662,DDP,4,MOH,,
36.6279,-0.565601,22,MUTARAKWA DISP,406,CENTRAL,NYANDARUA,NORTH KINANGOP,NORTH KINANGOP,KINJA,36.627900,-0.565601,DDP,4,MOH,,
36.61817,-0.525748,,NANDARASI DISP,,CENTRAL,NYANDARUA,NORTH KINANGOP,NORTH KINANGOP,KITIRI,36.618170,-0.525748,DHMT,4,MOH,,
36.5441,-0.040465,24,NDARAGWA HEALTH CENTRE,407,CENTRAL,NYANDARUA,NDARAGWA,KAHUTHA,MURICHO,36.544100,-0.040465,DDP,3,MOH,,
36.4413,-0.338998,25,NDEMI DISP,408,CENTRAL,NYANDARUA,KIPIPIRI,MALEWA,NDEMI,36.441300,-0.338998,DDP,4,MOH,,
36.332321,-0.312321,28,NEW MAWINGO DISP,409,CENTRAL,NYANDARUA,OL KALOU,OL KALOU,MAWINGO(NYANDA),36.332321,-0.312321,1:50000 MAPS,4,MOH,,
36.292321,-0.342321,29,NEW TUMAINI DISP,,CENTRAL,NYANDARUA,OL KALOU,TUMAINI,KANJUIRI,36.292321,-0.342321,1:50000 MAPS,4,MOH,,
36.2833,-0.095749,30,NGANO H C,410,CENTRAL,NYANDARUA,OL JORO OROK,GATANJE,NGANO,36.283300,-0.095749,DDP,3,MOH,,
36.23,-0.313633,31,NGORIKA DISP,412,CENTRAL,NYANDARUA,OL KALOU,NGORIKA,NGORIKA,36.230000,-0.313633,DDP,4,MOH,,
36.669,-0.734441,32,NJABINI CATHOLIC DISP,413,CENTRAL,NYANDARUA,SOUTH KINANGOP,NJABINI,KIBURU,36.669000,-0.734441,DDP,4,MISS,,
36.6657,-0.721433,33,NJABINI HEALTH CENTRE,432,CENTRAL,NYANDARUA,SOUTH KINANGOP,NJABINI,KIBURU,36.665700,-0.721433,DDP,3,MOH,,
36.5833,-0.5992,34,NORTH KINANGOP CATHOLIC HOSPITAL,436,CENTRAL,NYANDARUA,NORTH KINANGOP,ENGINEER,GATHARA,36.583300,-0.599200,HD MAPS,1,MISS,,
36.359734,0.013654,36,NYAHURURU CATHOLIC MISSION DISP,397,CENTRAL,NYANDARUA,OL JORO OROK,GATIMU,GIKINGI,36.359734,0.013654,ILRI MKT CENTRES,4,MISS,,
36.3418,0.023274,37,NYAHURURU DISTRICT HOSPITAL,437,CENTRAL,NYANDARUA,OL JORO OROK,GATIMU,GIKINGI,36.341800,0.023274,DDP,1,MOH,,
36.269,-0.283714,38,NYS TUMAINI DISP,3361,CENTRAL,NYANDARUA,OL KALOU,TUMAINI,KANJUIRI,36.269000,-0.283714,DDP,4,MOH,,
36.3535,-0.099001,39,OL JORO OROK CATHOLIC DISP,3634,CENTRAL,NYANDARUA,OL JORO OROK,OL JORO OROK,LESIRKO,36.353500,-0.099001,DDP,4,MISS,,
36.3483,-0.046969,40,OL'BOROSAT DISP,414,CENTRAL,NYANDARUA,OL JORO OROK,GATANJE,GATHANJE,36.348300,-0.046969,DDP,4,MOH,,
36.5213,-0.405989,41,OLD MAWINGO DISP,415,CENTRAL,NYANDARUA,KIPIPIRI,KIPIPIRI,MIHARATI,36.521300,-0.405989,DDP,4,MOH,,
36.3735,-0.2707,42,OL'KALOU DISTRICT HOSPITAL,438,CENTRAL,NYANDARUA,OL KALOU,OL KALOU,MUNYEKI,36.373500,-0.270700,HD MAPS,1,MOH,,
36.32708,-0.219369,68,PASSENGA CATHOLIC DISP,4546,CENTRAL,NYANDARUA,OL KALOU,RURII,PASSENGA,36.327080,-0.219369,SUBLOC CENTROID,4,MISS,,
36.5792,-0.123716,43,PESI DISP,416,CENTRAL,NYANDARUA,NDARAGWA,SHAMATA,PESI(NYANDARUA),36.579200,-0.123716,DDP,4,MOH,,
36.5649,-0.248593,44,SHAMATA DISP,417,CENTRAL,NYANDARUA,NATIONAL PARK,NATIONAL PARK,MT. KENYA N. PARK,36.564900,-0.248593,DDP,4,MOH,,
36.2833,-0.043717,45,SILIBWET DISP,418,CENTRAL,NYANDARUA,OL JORO OROK,GATANJE,SILIBWET(NYANDA),36.283300,-0.043717,DDP,4,MOH,,
36.250195,-0.217278,20,ST MATTHEWS AND SARAH CATHOLIC D,4356,CENTRAL,NYANDARUA,OL KALOU,NDUNDORI,MELANGINE,36.250195,-0.217278,SUBLOC CENTROID,4,MISS,,
36.239229,-0.303998,,ST. MARY'S DISP,,CENTRAL,NYANDARUA,OL KALOU,NGORIKA,NGORIKA,36.239229,-0.303998,DHMT,4,MISS,,
36.4621,-0.0977,48,SUBUKU DISP,420,CENTRAL,NYANDARUA,NDARAGWA,KANYAGIA,KANYAGIA,36.462100,-0.097700,DDP,4,MOH,,
36.2638,-0.271357,49,TUMAINI DISP,423,CENTRAL,NYANDARUA,OL KALOU,TUMAINI,KANJUIRI,36.263800,-0.271357,DDP,4,MOH,,
36.4426,-0.447615,50,TURASHA DISP,424,CENTRAL,NYANDARUA,KIPIPIRI,LERESHWA,KIRIKO(NYANDARUA),36.442600,-0.447615,DDP,4,MOH,,
36.5779,0.03238,51,URUKU DISP,425,CENTRAL,NYANDARUA,NDARAGWA,KAHUTHA,URUKU(NYANDARUA),36.577900,0.032380,DDP,4,MOH,,
36.5122,-0.307129,52,WANJOHI HEALTH CENTRE,434,CENTRAL,NYANDARUA,KIPIPIRI,WANJOHI,GATONDO,36.512200,-0.307129,DDP,3,MOH,,
36.5747,-0.681759,53,WERU DISP,426,CENTRAL,NYANDARUA,SOUTH KINANGOP,NJABINI,MURUAKI,36.574700,-0.681759,DDP,4,MOH,,
37.020721,-0.501352,1,AGUTHI DISP,440,CENTRAL,NYERI,TETU,AGUTHI,GITITU,37.020721,-0.501352,1:50000 MAPS,4,MOH,,
36.874537,-0.331019,2,AMBONI DISP,441,CENTRAL,NYERI,KIENI WEST,MWEIGA,AMBONI,36.874537,-0.331019,1:50000 MAPS,4,MOH,,
36.781122,-0.221133,3,BELLEVUE SUB HEALTH CENTRE,442,CENTRAL,NYERI,KIENI WEST,GATARAKWA,KAMARIKI,36.781122,-0.221133,1:50000 MAPS,4,MOH,,
37.0,-0.111224,4,BURGURET DISP,,CENTRAL,NYERI,KIENI EAST,GAKAWA,GITHIMA(NYERI),37.000000,-0.111224,1:50000 MAPS,4,MOH,,
37.173874,-0.440991,5,CHEHE DISP,444,CENTRAL,NYERI,MATHIRA,IRIA-INI,CHEHE,37.173874,-0.440991,1:50000 MAPS,4,MOH,,
36.91898,-0.41129,6,CONSOLATA HOSPITAL MATHARI,496,CENTRAL,NYERI,MUNICIPALITY,MUKARO,MATHARI,36.918980,-0.411290,GPS,1,MISS,,
36.682213,-0.281144,7,EMBARINGO DISP,3159,CENTRAL,NYERI,KIENI WEST,GATARAKWA,EMBARINGO,36.682213,-0.281144,1:50000 MAPS,4,MOH,,
36.7948,-0.307348,8,ENDARASHA HEALTH CENTRE,509,CENTRAL,NYERI,KIENI WEST,ENDARASHA,ENDARASHA,36.794800,-0.307348,1:50000 MAPS,3,MOH,,
37.026577,-0.429054,9,GACHIKA DISP,3158,CENTRAL,NYERI,MUNICIPALITY,KIGANJO,GACHIKA(NYERI),37.026577,-0.429054,1:50000 MAPS,4,MOH,,
37.08,-0.041123,10,GAKAWA DISP,3364,CENTRAL,NYERI,KIENI EAST,GAKAWA,KAHURURA,37.080000,-0.041123,1:50000 MAPS,4,MOH,,
37.148198,-0.399909,11,GATEI DISP,445,CENTRAL,NYERI,MATHIRA,MAGUTU,GATEI(NYERI),37.148198,-0.399909,1:50000 MAPS,4,MOH,,
37.031124,-0.07432,12,GATHIURU DISP,446,CENTRAL,NYERI,KIENI EAST,GAKAWA,GATHIURU,37.031124,-0.074320,1:50000 MAPS,4,MOH,,
36.90123,-0.48214,13,GATHUTHI DISP,3809,CENTRAL,NYERI,TETU,THEGENGE,GATHUTHI,36.901230,-0.482140,DISTRICT ESTIMATES,4,MISS,,
36.9919,-0.457437,14,GATITU DISP,447,CENTRAL,NYERI,TETU,GAAKI,MUTATHIINI,36.991900,-0.457437,1:50000 MAPS,4,MOH,,
37.16667,-0.43333,15,GATONDO DISP,4578,CENTRAL,NYERI,MATHIRA,IRIA-INI,KIAMWANGI,37.166670,-0.433330,1:50000 MAPS,4,MOH,,
36.975528,-0.532145,16,GIATHENGE DISP,3561,CENTRAL,NYERI,OTHAYA,KARIMA,GURA,36.975528,-0.532145,1:50000 MAPS,4,MOH,,
36.92429,-0.57562,17,GICHICHI SUB HEALTH CENTRE,489,CENTRAL,NYERI,OTHAYA,CHINGA,GICHICHE(NYERI),36.924290,-0.575620,GPS,3,MOH,,
37.019369,-0.471847,18,GICHIRA HEALTH CENTRE,449,CENTRAL,NYERI,TETU,AGUTHI,GICHIRA,37.019369,-0.471847,1:50000 MAPS,3,MOH,,
37.03231,-0.57123,19,GIKONDI DISP,490,CENTRAL,NYERI,MUKURWE-INI,GIKONDI,KIIRUNGI,37.032310,-0.571230,DISTRICT ESTIMATES,4,MISS,,
36.8629,-0.517025,20,GITUGI DISP,450,CENTRAL,NYERI,OTHAYA,MAHIGA,GITUGI(NYERI),36.862900,-0.517025,1:50000 MAPS,4,MOH,,
37.13234,-0.39132,21,GITUNDUTI CATHOLIC DISP,4371,CENTRAL,NYERI,MATHIRA,MAGUTU,GITUNDUTI,37.132340,-0.391320,DISTRICT ESTIMATES,4,MISS,,
37.125226,-0.619394,22,GUMBA DISP,451,CENTRAL,NYERI,MUKURWE-INI,RUTUNE,NGAMWA,37.125226,-0.619394,1:50000 MAPS,4,MOH,,
37.08784,-0.354505,23,HOMBE DISP,452,CENTRAL,NYERI,MATHIRA,RUGURU,SAGANA(NYERI),37.087840,-0.354505,1:50000 MAPS,4,MOH,,
37.12657,-0.47851,24,HOMEBASED DISP,,CENTRAL,NYERI,MATHIRA,KARATINA,CHERU,37.126570,-0.478510,GPS,4,MOH,,
37.07877,-0.54258,25,ICHAMARA DISP,453,CENTRAL,NYERI,MUKURWE-INI,GITHI,ICHAMARA,37.078770,-0.542580,GPS,4,MOH,,
36.883322,-0.554411,26,IHURIRIO DISP,454,CENTRAL,NYERI,OTHAYA,IRIA-INI,IHURIRIO,36.883322,-0.554411,1:50000 MAPS,4,MOH,,
36.8907,-0.412186,27,IHURURU DISP,455,CENTRAL,NYERI,TETU,MAHOYA,IHURURU,36.890700,-0.412186,1:50000 MAPS,4,MOH,,
37.061123,-0.21134,28,ISLAND FARM DISP,456,CENTRAL,NYERI,KIENI EAST,NAROMORU,RONGAI(NYERI),37.061123,-0.211340,1:50000 MAPS,4,MOH,,
37.107207,-0.40991,29,ITIATI DISP,3145,CENTRAL,NYERI,MATHIRA,KONYU,ITIATI,37.107207,-0.409910,1:50000 MAPS,4,MOH,,
37.18378,-0.406532,30,ITUNDU DISP,3154,CENTRAL,NYERI,MATHIRA,IRIA-INI,CHEHE,37.183780,-0.406532,1:50000 MAPS,4,MOH,,
36.8239,-0.402778,31,KABAGE DISP,457,CENTRAL,NYERI,TETU,MAHOYA,KABAGE,36.823900,-0.402778,1:50000 MAPS,4,MOH,,
36.9261,-0.516129,32,KAGERE DISP,3151,CENTRAL,NYERI,OTHAYA,MAHIGA,KAMOKO,36.926100,-0.516129,1:50000 MAPS,4,MOH,,
36.902253,-0.600901,33,KAGICHA DISP,4575,CENTRAL,NYERI,OTHAYA,CHINGA,MUMBUINI,36.902253,-0.600901,1:50000 MAPS,4,MOH,,
37.06232,-0.52123,34,KAHETI DISP,503,CENTRAL,NYERI,MUKURWE-INI,MUHITO,MUNYU(MUKURWEINI),37.062320,-0.521230,DISTRICT ESTIMATES,4,MISS,,
37.114415,-0.052703,35,KAHURURA DISP,458,CENTRAL,NYERI,KIENI EAST,GAKAWA,KAHURURA,37.114415,-0.052703,1:50000 MAPS,4,MOH,,
36.882433,-0.532433,36,KAIRUTHI DISP,4372,CENTRAL,NYERI,OTHAYA,IRIA-INI,KAIRUTHI(IRIANI),36.882433,-0.532433,1:50000 MAPS,4,MOH,,
37.114415,-0.052703,37,KAMBURAINI DISP,3149,CENTRAL,NYERI,KIENI EAST,GAKAWA,KAHURURA,37.114415,-0.052703,1:50000 MAPS,4,MOH,,
36.931145,-0.514689,38,KAMOKO SUB HEALTH CENTRE,459,CENTRAL,NYERI,OTHAYA,MAHIGA,KAMOKO,36.931145,-0.514689,1:50000 MAPS,3,MOH,,
37.103604,-0.628829,39,KARABA DISP,460,CENTRAL,NYERI,MUKURWE-INI,GIKONDI,KARABA(NYERI),37.103604,-0.628829,1:50000 MAPS,4,MOH,,
37.12141,-0.47896,40,KARATINA MISSION DISP,461,CENTRAL,NYERI,MATHIRA,KARATINA,MUTHUA,37.121410,-0.478960,GPS,4,MISS,,
37.12943,-0.47339,41,KARATINA SUB-DISTRICT HOSPITAL,495,CENTRAL,NYERI,MATHIRA,KARATINA,CHERU,37.129430,-0.473390,GPS,1,MOH,,
36.781123,-0.12324,42,KAREMENO DISP,3146,CENTRAL,NYERI,KIENI WEST,MUGUNDA,KAREMENO,36.781123,-0.123240,1:50000 MAPS,4,MOH,,
36.8875,-0.578853,43,KARIKO DISP,462,CENTRAL,NYERI,OTHAYA,CHINGA,GIKIGIE,36.887500,-0.578853,1:50000 MAPS,4,MISS,,
36.98231,-0.52123,44,KARIMA DISP,463,CENTRAL,NYERI,OTHAYA,KARIMA,GURA,36.982310,-0.521230,DISTRICT ESTIMATES,4,MISS,,
36.946396,-0.590991,45,KIAGUTHU DISP,3152,CENTRAL,NYERI,OTHAYA,CHINGA,KIAGUTHU(CHINGA),36.946396,-0.590991,1:50000 MAPS,4,MOH,,
36.935586,-0.576577,46,KIAMUYA DISP,4373,CENTRAL,NYERI,OTHAYA,CHINGA,KAGONGO(NYERI),36.935586,-0.576577,1:50000 MAPS,4,MOH,,
36.83784,-0.451351,47,KIANDONGORO DISP,464,CENTRAL,NYERI,TETU,TETU,KIRURUMI,36.837840,-0.451351,1:50000 MAPS,4,MOH,,
37.00315,-0.37923,48,KIGANJO MARKET DISP,466,CENTRAL,NYERI,MUNICIPALITY,KIGANJO,KIGANJO(NYERI),37.003150,-0.379230,1:50000 MAPS,4,MOH,,
36.911123,-0.381122,49,KIHUYO DISP,4374,CENTRAL,NYERI,MUNICIPALITY,MUKARO,KIHUYO,36.911123,-0.381122,1:50000 MAPS,4,MOH,,
36.89,-0.441123,50,KINUNGA HEALTH CENTRE,491,CENTRAL,NYERI,TETU,TETU,KIGOGOINI,36.890000,-0.441123,1:50000 MAPS,3,MOH,,
36.8544,-0.435484,51,KIRURUMI DISP,3148,CENTRAL,NYERI,TETU,TETU,KIRURUMI,36.854400,-0.435484,1:50000 MAPS,4,MOH,,
37.13,-0.42,52,MAGUTU MISSION DISP,468,CENTRAL,NYERI,MATHIRA,MAGUTU,GAIKUYU,37.130000,-0.420000,ILRI VILLAGES,4,MISS,,
36.91523,-0.512321,53,MAHIGA  MISSION DISP,27,CENTRAL,NYERI,OTHAYA,MAHIGA,KAMOKO,36.915230,-0.512321,DISTRICT ESTIMATES,4,MISS,,
36.9,-0.31667,54,MARY IMMACULATE HOSP. MWEIGA,1694,CENTRAL,NYERI,KIENI WEST,MWEIGA,KAMATONGU,36.900000,-0.316670,HD MAPS,1,MISS,,
37.04213,-0.131124,55,MERE DISP,469,CENTRAL,NYERI,KIENI EAST,KIAMATHAGE,MIRICHO,37.042130,-0.131124,1:50000 MAPS,4,MOH,,
37.07748,-0.565766,56,MIHUTI DISP,470,CENTRAL,NYERI,MUKURWE-INI,GIATHUGU,MIHUTI(NYERI),37.077480,-0.565766,1:50000 MAPS,4,MOH,,
36.93414,-0.42414,57,MT. KENYA HOSPITAL,497,CENTRAL,NYERI,MUNICIPALITY,MUKARO,MAJENGO(NYERI),36.934140,-0.424140,GPS,1,MOH,,
36.71123,-0.30123,58,MUGUNDA DISP,471,CENTRAL,NYERI,KIENI WEST,ENDARASHA,GAKANGA,36.711230,-0.301230,1:50000 MAPS,4,MOH,,
37.04464,-0.55924,59,MUKURWENI SUB-DISTRICT HOSP.,498,CENTRAL,NYERI,MUKURWE-INI,MUHITO,GATURIA,37.044640,-0.559240,GPS,1,MOH,,
37.02793,-0.123874,60,MURERU DISP,3150,CENTRAL,NYERI,KIENI EAST,GAKAWA,GITHIMA(NYERI),37.027930,-0.123874,1:50000 MAPS,4,MOH,,
37.053153,-0.593694,61,MUTHUTHI-INI DISP,3810,CENTRAL,NYERI,MUKURWE-INI,GIKONDI,MUTHUTHIINI,37.053153,-0.593694,1:50000 MAPS,4,MOH,,
37.10231,-0.602321,62,MWERU DISPENSARY,507,CENTRAL,NYERI,MUKURWE-INI,GIATHUGU,MWERU(NYERI),37.102310,-0.602321,DISTRICT ESTIMATES,4,MOH,,
37.01082,-0.317568,63,NAIROBI DISP,472,CENTRAL,NYERI,KIENI EAST,THIGU,THIRIGITU,37.010820,-0.317568,1:50000 MAPS,4,MOH,,
37.03124,-0.17421,64,NARO MORU CATHOLIC DISP,3141,CENTRAL,NYERI,KIENI EAST,NAROMORU,NAROMORU,37.031240,-0.174210,DISTRICT ESTIMATES,4,MISS,,
37.02027,-0.16667,65,NARO MORU SUB HEALTH CENTRE,474,CENTRAL,NYERI,KIENI EAST,NAROMORU,NAROMORU,37.020270,-0.166670,1:50000 MAPS,3,MOH,,
37.11982,-0.301354,66,NDATHI DISP,476,CENTRAL,NYERI,KIENI EAST,KABARU,NDATHI,37.119820,-0.301354,1:50000 MAPS,4,MOH,,
37.137387,-0.522523,67,NDIMAINI DISP,477,CENTRAL,NYERI,MATHIRA,KONYU,GAKUYU(NYERI),37.137387,-0.522523,1:50000 MAPS,4,MOH,,
36.8858,-0.489695,68,NDUGAMANO DISP,84,CENTRAL,NYERI,TETU,THEGENGE,NDUGAMANO,36.885800,-0.489695,1:50000 MAPS,4,MOH,,
37.09231,-0.45123,69,NGANDU-KABIRUINI MISSION DISP,478,CENTRAL,NYERI,MATHIRA,KIRIMUKUYU,NGANDU,37.092310,-0.451230,DISTRICT ESTIMATES,4,MISS,,
37.064189,-0.409901,70,NGORANO HEALTH CENTRE,510,CENTRAL,NYERI,MATHIRA,NGORANO,HIRIGA,37.064189,-0.409901,1:50000 MAPS,3,MOH,,
36.863964,-0.40045,71,NJOGUINI DISP,3545,CENTRAL,NYERI,TETU,MAHOYA,THATHA(NYERI),36.863964,-0.400450,1:50000 MAPS,4,MOH,,
36.992255,-0.571122,72,NJOKI DISP,479,CENTRAL,NYERI,MUKURWE-INI,GAKINDU,GAKINDUINI,36.992255,-0.571122,1:50000 MAPS,4,MOH,,
36.96113,-0.42399,73,NYERI PROVINCIAL GENERAL HOSP.,499,CENTRAL,NYERI,MUNICIPALITY,MUKARO,MAJENGO(NYERI),36.961130,-0.423990,GPS,2,MOH,,
36.94271,-0.54783,74,OTHAYA KARIMA MISSION DISPENSARY,481,CENTRAL,NYERI,OTHAYA,IRIA-INI,GITUNDU,36.942710,-0.547830,GPS,4,MISS,,
36.93995,-0.5399,75,OTHAYA SUB-DISTRICT HOSPITAL,500,CENTRAL,NYERI,OTHAYA,IRIA-INI,KIAHAGU,36.939950,-0.539900,GPS,1,MOH,,
37.13176,-0.461712,76,RAGATI DISP,483,CENTRAL,NYERI,MATHIRA,MAGUTU,RAGATI,37.131760,-0.461712,1:50000 MAPS,4,MOH,,
36.8974,-0.568548,77,RURUGUTI DISP,3155,CENTRAL,NYERI,OTHAYA,IRIA-INI,KIANDEMI,36.897400,-0.568548,1:50000 MAPS,4,MOH,,
37.006306,-0.58243,78,SOUTH TETU DISP,3161,CENTRAL,NYERI,MUKURWE-INI,GIKONDI,KARINDI,37.006306,-0.582430,1:50000 MAPS,4,MOH,,
37.017117,-0.526577,79,TAMBAYA DISP,3153,CENTRAL,NYERI,MUKURWE-INI,GAKINDU,RUTHANJI,37.017117,-0.526577,1:50000 MAPS,4,MOH,,
37.153604,-0.604505,80,THANGATHI DISP,484,CENTRAL,NYERI,MUKURWE-INI,RUTUNE,MUTUNDU,37.153604,-0.604505,1:50000 MAPS,4,MOH,,
36.94906,-0.41983,81,TOWN HEALTH CENTRE,493,CENTRAL,NYERI,MUNICIPALITY,MUKARO,MAJENGO(NYERI),36.949060,-0.419830,GPS,3,MOH,,
37.07946,-0.48549,82,TUMUTUMU MISS. HOSPITAL,501,CENTRAL,NYERI,MATHIRA,KIRIMUKUYU,MBOGOINI,37.079460,-0.485490,GPS,1,MISS,,
36.97123,-0.49213,83,UNJIRU DISP,485,CENTRAL,NYERI,TETU,KARUNDU,UNJIRU,36.971230,-0.492130,DISTRICT ESTIMATES,4,MOH,,
36.9319,-0.475806,84,WAMAGANA HEALTH CENTRE,494,CENTRAL,NYERI,TETU,KARUNDU,KIANJOGU(NYERI),36.931900,-0.475806,1:50000 MAPS,3,MOH,,
36.8876,-0.46819,85,WANDUMBI DISP,486,CENTRAL,NYERI,TETU,TETU,KARAIHU,36.887600,-0.468190,1:50000 MAPS,4,MOH,,
37.11397,-0.260355,86,WARAZO HEALTH CENTRE,511,CENTRAL,NYERI,KIENI EAST,KABARU,KIRIMA(NYERI),37.113970,-0.260355,1:50000 MAPS,3,MOH,,
36.75123,-0.27412,87,WATUKA DISP,3362,CENTRAL,NYERI,KIENI WEST,GATARAKWA,WATUKA,36.751230,-0.274120,1:50000 MAPS,4,MOH,,
36.80123,-0.291235,88,WENDIGA DISP,3869,CENTRAL,NYERI,KIENI WEST,ENDARASHA,CHARITY,36.801230,-0.291235,1:50000 MAPS,4,MOH,,
36.982883,-0.545046,89,WITIMA DISP,487,CENTRAL,NYERI,OTHAYA,KARIMA,WITIMA,36.982883,-0.545046,1:50000 MAPS,4,MOH,,
36.9785,-0.548387,90,ZAINA DISP,488,CENTRAL,NYERI,OTHAYA,KARIMA,WITIMA,36.978500,-0.548387,1:50000 MAPS,4,MOH,,
,,1,AMA HEALTH CENTRE,4732,CENTRAL,THIKA,,,,,,,3,MISS,,
36.802321,-0.903212,2,GACHEGE DISP,2420,CENTRAL,THIKA,KAMWANGI,GITHOBOKONI,GACHEGE,36.802321,-0.903212,1:50000 MAPS,4,MOH,,
36.77253,-0.972523,3,GACIIKA DISP,2417,CENTRAL,THIKA,GATUNDU,KIGANJO,GACHIKA(THIKA),36.772530,-0.972523,1:50000 MAPS,4,MOH,,
36.7836,-0.875356,4,GAKOE HC,2425,CENTRAL,THIKA,KAMWANGI,GITHOBOKONI,GAKOE,36.783600,-0.875356,DDP,3,MOH,,
36.96123,-0.93125,5,GATANGA DISP,307,CENTRAL,THIKA,GATANGA,KIHUMBUINI,MUKARARA,36.961230,-0.931250,1:50000 MAPS,4,MOH,,
36.96981,-0.938288,6,GATANGA MISS. DISP,308,CENTRAL,THIKA,GATANGA,GATANGA,MUGUMOINI(THIKA),36.969810,-0.938288,1:50000 MAPS,4,MISS,,
36.8126,-0.988882,7,GATITU DISP,197,CENTRAL,THIKA,GATUNDU,KIGANJO,GATITU(THIKA),36.812600,-0.988882,DDP,4,MISS,,
36.9573,-0.98662,8,GATUKUYU DISP,,CENTRAL,THIKA,KAMWANGI,MANGU,GATUKUYU,36.957300,-0.986620,DDP,4,MISS,,
36.902312,-1.000232,9,GATUNDU GENERAL SUB-DISTRICT HOS,250,CENTRAL,THIKA,GATUNDU,NGENDA,ITURU,36.902312,-1.000232,1:50000 MAPS,1,MOH,,
36.99231,-0.962413,10,GATUNYU DISP,2711,CENTRAL,THIKA,GATANGA,GATANGA,MUGUMOINI(THIKA),36.992310,-0.962413,1:50000 MAPS,4,MOH,,
36.861235,-0.853212,11,GATURA HEALTH CENTRE,376,CENTRAL,THIKA,GATANGA,KARIARA,GATURA(THIKA),36.861235,-0.853212,1:50000 MAPS,3,MOH,,
37.322321,-0.94231,12,GIATHANINI DISP,314,CENTRAL,THIKA,KAKUZI,ITHANGA,GIATHANINI,37.322321,-0.942310,1:50000 MAPS,4,MOH,,
36.892321,-0.942312,13,GITARE DISP,3433,CENTRAL,THIKA,KAMWANGI,CHANIA,KIAMWANGI(KAMWANGI),36.892321,-0.942312,1:50000 MAPS,4,MOH,,
37.0116,-1.17885,14,GITHURAI DISP,,CENTRAL,THIKA,RUIRU,RUIRU,KIUU,37.011600,-1.178850,DDP,4,MOH,,
36.9528,-0.982097,15,IGEGANIA HEALTH CENTRE,258,CENTRAL,THIKA,KAMWANGI,CHANIA,MUIRIGO,36.952800,-0.982097,DDP,3,MOH,,
37.3513,-0.991596,16,ITHANGA DISP,324,CENTRAL,THIKA,KAKUZI,ITHANGA,KAGUKU,37.351300,-0.991596,DDP,4,MOH,,
36.7913,-0.957674,17,ITURAMIRA DISP,,CENTRAL,THIKA,GATUNDU,KIGANJO,NDUNDU,36.791300,-0.957674,DDP,4,MOH,,
36.992321,-1.03231,18,JUJA FARM DISP,2429,CENTRAL,THIKA,RUIRU,JUJA,KOMO,36.992321,-1.032310,1:50000 MAPS,4,MOH,,
37.0749,-1.13724,19,KALIMONI HEALTH CENTRE,234,CENTRAL,THIKA,RUIRU,JUJA,KALIMONI,37.074900,-1.137240,DDP,3,MISS,,
36.7972,-0.897066,20,KAMUNYAKA DISP,,CENTRAL,THIKA,KAMWANGI,GITHOBOKONI,GACHEGE,36.797200,-0.897066,DDP,4,MOH,,
36.7836,-0.928727,21,KARATU HEALTH CENTRE,236,CENTRAL,THIKA,GATUNDU,NDARUGU,MUNYUINI,36.783600,-0.928727,DDP,3,MOH,,
36.849113,-0.906258,22,KARINGA DISP,211,CENTRAL,THIKA,KAMWANGI,GITUAMBA,KANYONI,36.849113,-0.906258,SUBLOC CENTROID,4,MISS,,
36.8085,-0.856359,23,KIARUTARA DISP,,CENTRAL,THIKA,KAMWANGI,GITUAMBA,MATAARA,36.808500,-0.856359,DDP,4,MOH,,
36.892312,-0.853214,24,KIGORO DISP,339,CENTRAL,THIKA,GATANGA,KIGORO,KIGORO,36.892312,-0.853214,1:50000 MAPS,4,MOH,,
36.973212,-0.922312,25,KIHUMBUINI DISP,341,CENTRAL,THIKA,GATANGA,KIHUMBUINI,KIHUMBUINI,36.973212,-0.922312,1:50000 MAPS,4,MOH,,
36.9858,-0.925561,26,KIHUMBUINI DISP,4596,CENTRAL,THIKA,GATANGA,KIHUMBUINI,KIHUMBUINI,36.985800,-0.925561,DDP,4,MISS,,
37.2202,-1.0712,27,KILIMAMBOGO MISS. HOSPITAL,254,CENTRAL,THIKA,MUNICIPALITY,GATUANYAGA,GATUANYAGA,37.220200,-1.071200,DDP,1,MISS,,
36.763212,-0.771423,28,KIMAKIA FOREST DISP,3795,CENTRAL,THIKA,GATANGA,KARIARA,KIMAKIA,36.763212,-0.771423,1:50000 MAPS,4,MOH,,
37.3083,-1.00517,29,KINYANGI HEALTH CENTRE,380,CENTRAL,THIKA,KAKUZI,KAKUZI,KINYANGI,37.308300,-1.005170,DDP,3,MOH,,
,,30,KIRATHAMI DISP,,CENTRAL,THIKA,,,,,,,4,MOH,,
36.8772,-0.911087,31,KIRIKO DISP,218,CENTRAL,THIKA,KAMWANGI,GITUAMBA,KIRIKO(THIKA),36.877200,-0.911087,DDP,4,MISS,,
36.90321,-0.923212,32,KIRWARA HEALTH CENTRE,383,CENTRAL,THIKA,KAMWANGI,CHANIA,NGORONGO,36.903210,-0.923212,1:50000 MAPS,3,MOH,,
37.232252,-0.915586,33,KITITO DISP,346,CENTRAL,THIKA,KAKUZI,KAKUZI,KIRIMIRI,37.232252,-0.915586,1:50000 MAPS,4,MISS,,
37.0107,-0.944557,34,KIUNYU DISP,347,CENTRAL,THIKA,GATANGA,KIHUMBUINI,GITUAMBA/KIUNYU,37.010700,-0.944557,DDP,4,MOH,,
36.961426,-0.969116,35,MAKWA KOLTING MISSION DISP,2421,CENTRAL,THIKA,KAMWANGI,CHANIA,MAKWA,36.961426,-0.969116,SUBLOC CENTROID,4,MISS,,
36.953603,-0.987387,36,MANGU DISPENSARY,241,CENTRAL,THIKA,KAMWANGI,MANGU,GATUKUYU,36.953603,-0.987387,1:50000 MAPS,3,MISS,,
37.068919,-1.046838,37,MARY HELP OF THE SICK  MISSION H,,CENTRAL,THIKA,MUNICIPALITY,THIKA MUNICIPALITY,KOMU,37.068919,-1.046838,1:50000 MAPS,1,MISS,,
36.8076,-0.881236,38,MATAARA DISP,387,CENTRAL,THIKA,KAMWANGI,GITUAMBA,MATAARA,36.807600,-0.881236,DDP,4,MOH,,
36.895946,-0.97027,39,MBICHI DISP,2455,CENTRAL,THIKA,KAMWANGI,GITHOBOKONI,GATEI(THIKA),36.895946,-0.970270,1:50000 MAPS,4,MOH,,
37.082312,-1.012321,40,MITUMBIRI DISP,2462,CENTRAL,THIKA,KAKUZI,MITUMBIRI,THUTHUA,37.082312,-1.012321,1:50000 MAPS,4,MOH,,
36.9686,-1.14266,41,MUGUTHA HEALTH CENTRE,,CENTRAL,THIKA,RUIRU,RUIRU,MUGUTHA,36.968600,-1.142660,DDP,3,MOH,,
,,42,MUIANA DISP,2405,CENTRAL,THIKA,,,,,,,4,MISS,,
36.9618,-0.928727,43,MUKARARA DISP,,CENTRAL,THIKA,GATANGA,KIHUMBUINI,MUKARARA,36.961800,-0.928727,DDP,4,MOH,,
36.96321,-0.902312,44,MUKURWE DISP,4537,CENTRAL,THIKA,GATANGA,KIHUMBUINI,MUKURWE/THUITA,36.963210,-0.902312,1:50000 MAPS,4,MOH,,
37.1134,-1.11553,45,MUNYU HEALTH CENTRE,259,CENTRAL,THIKA,MUNICIPALITY,GATUANYAGA,MUNYU,37.113400,-1.115530,DDP,3,MOH,,
36.782312,-0.932312,46,MUNYUINI DISP,4746,CENTRAL,THIKA,GATUNDU,NDARUGU,MUNYUINI,36.782312,-0.932312,1:50000 MAPS,4,MOH,,
36.8085,-0.806607,47,NDAKAINI DISP,,CENTRAL,THIKA,GATANGA,KIGORO,NDAKAINI,36.808500,-0.806607,DDP,4,MOH,,
36.8234,-0.929631,48,NDARUGU DISP,,CENTRAL,THIKA,KAMWANGI,GITHOBOKONI,NJAHI,36.823400,-0.929631,DDP,4,MOH,,
,,49,NDONYERO HEALTH CENTRE,4595,CENTRAL,THIKA,,,,,,,3,MOH,,
36.785,-0.962196,50,NDUNDU DISPENSARY,222,CENTRAL,THIKA,GATUNDU,KIGANJO,NDUNDU,36.785000,-0.962196,DDP,4,MOH,,
36.797039,-0.973651,51,NDUNDU MISSION HEALTH CENTRE,232,CENTRAL,THIKA,GATUNDU,KIGANJO,NDUNDU,36.797039,-0.973651,SUBLOC CENTROID,3,MISS,,
36.901789,-1.009908,52,NDUNGU HEALTH CENTRE,2422,CENTRAL,THIKA,GATUNDU,NGENDA,KIRANGARI(THIKA),36.901789,-1.009908,1:50000 MAPS,3,MISS,,
37.3825,-1.01964,53,NGELELYA DISP,2460,CENTRAL,THIKA,KAKUZI,ITHANGA,NGELELYA,37.382500,-1.019640,DDP,4,MOH,,
36.8944,-1.03185,54,NGENDA HEALTH CENTRE,242,CENTRAL,THIKA,GATUNDU,KIAMWANGI,GATHAGE,36.894400,-1.031850,DDP,3,MOH,,
37.2776,-1.04723,55,NGORIBA HEALTH CENTRE,223,CENTRAL,THIKA,MUNICIPALITY,GATUANYAGA,NGOLIBA,37.277600,-1.047230,DDP,3,MOH,,
36.9044,-0.919681,56,NGORONGO HEALTH CENTRE,244,CENTRAL,THIKA,KAMWANGI,CHANIA,NGORONGO,36.904400,-0.919681,DDP,3,MOH,,
37.263212,-1.041232,57,NYS YATTA DISP,2434,CENTRAL,THIKA,MUNICIPALITY,GATUANYAGA,NGOLIBA,37.263212,-1.041232,1:50000 MAPS,4,MOH,,
36.964865,-1.135135,58,OAKLANDS HOSPITAL,2406,CENTRAL,THIKA,RUIRU,RUIRU,MUGUTHA,36.964865,-1.135135,1:50000 MAPS,1,MISS,,
36.9066,-1.11779,59,RUIRU HEALTH CENTRE,245,CENTRAL,THIKA,RUIRU,RUIRU,RUIRU(THIKA),36.906600,-1.117790,DDP,3,MOH,,
37.079567,-1.048742,60,ST LUKE'S HOSPITAL,4752,CENTRAL,THIKA,MUNICIPALITY,THIKA MUNICIPALITY,KOMU,37.079567,-1.048742,ILRI TOWNS,1,MISS,,
37.1346,-1.07798,61,ST. MULUMBA CATHOLIC HOSPITAL,4754,CENTRAL,THIKA,MUNICIPALITY,THIKA MUNICIPALITY,MAJENGO(THIKA),37.134600,-1.077980,DDP,1,MISS,,
37.0776,-1.03678,62,THIKA DISTRICT HOSPITAL,256,CENTRAL,THIKA,MUNICIPALITY,THIKA MUNICIPALITY,MAJENGO(THIKA),37.077600,-1.036780,DDP,1,MOH,,
36.9876,-0.910635,63,THUITA PCEA DISP,,CENTRAL,THIKA,GATANGA,KIHUMBUINI,MUKURWE/THUITA,36.987600,-0.910635,DDP,4,MISS,,
39.595692,-3.82122,1,AL-SULTAN DISP,513,COAST,KILIFI,KALOLENI,KALOLENI,KALOLENI/VISH/TSAKA,39.595692,-3.821220,AMKENI,4,MISS,,
39.523701,-3.54541,2,BAMBA HEALTH CENTRE,559,COAST,KILIFI,BAMBA,BAMBA,PAZIANI(KILIFI),39.523701,-3.545410,DANIDA,3,MOH,,
39.749401,-3.88427,3,BOMANI DISP,,COAST,KILIFI,KIKAMBALA,MTWAPA,KIDUTANI/MAWAMBA,39.749401,-3.884270,DANIDA,4,MOH,,
39.64452,-3.92021,4,BWAGAMOYO DISP,514,COAST,KILIFI,KALOLENI,RIBE,CHAURINGO,39.644520,-3.920210,DANIDA,4,MOH,,
39.699951,-3.73492,5,CHASIMBA/MWELE DISP,519,COAST,KILIFI,CHONYI,CHASIMBA,CHASIMBA,39.699951,-3.734920,KEMRI-KILIFI PROJECT,4,MOH,,
39.805408,-3.42881,8,DIDA DISP,523,COAST,KILIFI,VITENGENI,SOKOKE,DIDA,39.805408,-3.428810,DANIDA,4,MOH,,
39.671959,-3.54244,9,GANZE DISP,525,COAST,KILIFI,GANZE,GANZE,GANZE/TSANGALAWENI,39.671959,-3.542440,DANIDA,4,MOH,,
39.585923,-3.814363,10,GIRIAMA MISSION DISP,528,COAST,KILIFI,KALOLENI,KAYAFUNGO,MURIMANI,39.585923,-3.814363,AMKENI,4,MISS,,
39.540619,-3.78647,11,GOTANI DISP,531,COAST,KILIFI,KALOLENI,KAYAFUNGO,MBALAMWENI,39.540619,-3.786470,DANIDA,4,MOH,,
39.742729,-3.63261,12,JARIBUNI DISP,532,COAST,KILIFI,GANZE,KAUMA,VINAGONI,39.742729,-3.632610,DANIDA,4,MOH,,
39.686451,-3.83107,13,JIBANA HEALTH CENTRE,560,COAST,KILIFI,KALOLENI,JIBANA,TSAGWA,39.686451,-3.831070,DANIDA,3,MOH,,
39.761131,-3.82987,14,JUNJU DISP,534,COAST,KILIFI,KIKAMBALA,JUNJU,VIPINGO,39.761131,-3.829870,DANIDA,4,MOH,,
39.85722,-3.63205,16,KILIFI DISTRICT HOSPITAL,565,COAST,KILIFI,BAHARI,KILIFI TOWNSHIP,HOSPITAL(KILIFI),39.857220,-3.632050,DANIDA,1,MOH,,
39.579223,-3.729553,17,KINARANI DISP,3762,COAST,KILIFI,KALOLENI,MWANAMWINGA,KIBWABWANI,39.579223,-3.729553,AMKENI,4,MOH,,
39.676958,-3.782055,18,KIZINGO H C,3300,COAST,KILIFI,CHONYI,MWARAKAYA,KIZINGO(KILIFI),39.676958,-3.782055,AMKENI,3,MOH,,
39.58707,-3.91277,19,KOMBENI DISP,540,COAST,KILIFI,KALOLENI,MWAWESA,MWAMUTSUNGA,39.587070,-3.912770,DANIDA,4,MOH,,
39.661819,-3.8669,20,LENGA DISP,541,COAST,KILIFI,KALOLENI,KAMBE,PANGANI/MAERENI,39.661819,-3.866900,DANIDA,4,MOH,,
39.49386,-3.85673,21,MARIAKANI HEALTH CENTRE,570,COAST,KILIFI,KALOLENI,MARIAKANI,KAWALA/KADZONZO,39.493860,-3.856730,DANIDA,3,MOH,,
39.928551,-3.3904,22,MATSANGONI DISP,544,COAST,KILIFI,BAHARI,MATSANGONI,MATSANGONI,39.928551,-3.390400,DANIDA,4,MOH,,
39.663441,-3.84524,23,MGAMBONI DISP,546,COAST,KILIFI,KALOLENI,JIBANA,KWALE(KILIFI),39.663441,-3.845240,DANIDA,4,MOH,,
39.738239,-3.91792,24,MTWAPA DISP,545,COAST,KILIFI,KIKAMBALA,MTWAPA,KIDUTANI/MAWAMBA,39.738239,-3.917920,DANIDA,4,MOH,,
39.576759,-3.28851,25,MURYACHWAKE DISP,547,COAST,KILIFI,VITENGENI,MRIMA WA NDEGE,MILORE,39.576759,-3.288510,DANIDA,4,MOH,,
39.862282,-3.51353,26,NGERENYA DISP,548,COAST,KILIFI,BAHARI,NGERENYA,NGERENYA,39.862282,-3.513530,DANIDA,4,MOH,,
39.773449,-3.77444,27,PINGILIKANI DISP,550,COAST,KILIFI,CHONYI,BANDA RA SALAMA,PINGILIKANI,39.773449,-3.774440,DANIDA,4,MOH,,
39.566319,-3.93892,28,RABAI HEALTH CENTRE,571,COAST,KILIFI,KALOLENI,RABAI,BUNI/CHISIMANI,39.566319,-3.938920,DANIDA,3,MOH,,
39.63147,-3.8854,29,RIBE DISP,551,COAST,KILIFI,KALOLENI,RIBE,CHAURINGO,39.631470,-3.885400,DANIDA,4,MOH,,
39.705671,-3.777286,6,ST TERESA'S CATHOLIC DISP,3629,COAST,KILIFI,CHONYI,BANDA RA SALAMA,MWEMBE KATI,39.705671,-3.777286,ILRI MKT CENTRES,4,MISS,,
39.6334,-3.8166,30,ST. LUKE'S KALOLENI HOSPITAL,2938,COAST,KILIFI,KALOLENI,KALOLENI,KALOLENI/VISH/TSAKA,39.633400,-3.816600,KEMRI-KILIFI PROJECT,1,MISS,,
39.779401,-3.88018,15,SUN N SAND DISP,538,COAST,KILIFI,KIKAMBALA,MTWAPA,KIJIPWA,39.779401,-3.880180,DSA/DFH(MOH)-UNFPA REPORT,4,MISS,,
39.8592,-3.68278,32,TAKAUNGU DISP,554,COAST,KILIFI,KIKAMBALA,TAKAUNGU MAVUENI,TAKAUNGU,39.859200,-3.682780,DANIDA,4,MOH,,
39.44978,-3.71439,33,TSANGATSINI DISP,556,COAST,KILIFI,KALOLENI,TSANGATSINI,TSANGATSINI,39.449780,-3.714390,DANIDA,4,MOH,,
39.594903,-3.883313,34,UNION MEDICAL DISP,,COAST,KILIFI,KALOLENI,RURUMA,MIYUNI,39.594903,-3.883313,AMKENI,4,MISS,,
39.809422,-3.81929,35,VIPINGO HEALTH CENTRE,572,COAST,KILIFI,KIKAMBALA,JUNJU,VIPINGO,39.809422,-3.819290,DANIDA,3,MOH,,
39.8133,-3.80758,36,VIPINGO SISAL ESTATE DISP,557,COAST,KILIFI,KIKAMBALA,JUNJU,VIPINGO,39.813300,-3.807580,KEMRI-KILIFI PROJECT,4,MISS,,
39.707989,-3.35909,37,VITENGENI DISP,563,COAST,KILIFI,VITENGENI,VITENGENI,VITENGENI,39.707989,-3.359090,DANIDA,4,MOH,,
,,38,WEMA CATHOLIC DISP,,COAST,KILIFI,,,,,,,4,MISS,,
,,39,WORLD REVIVAL DISP,,COAST,KILIFI,,,,,,,4,MISS,,
39.434,-3.98003,1,BOFU DISP,573,COAST,KWALE,KINANGO,MTAA,BOFU(KWALE),39.434000,-3.980030,GPS,4,MOH,,
39.5752,-4.28581,2,CATHOLIC DISP DIANI-UKUNDA,,COAST,KWALE,MSAMBWENI,DIANI,UKUNDA,39.575200,-4.285810,GPS,4,MISS,,
39.5681,-4.27433,3,DIANI DISP,574,COAST,KWALE,MSAMBWENI,DIANI,GOMBATO,39.568100,-4.274330,GPS,4,MOH,,
39.3469,-4.41492,4,ESHU DISP,575,COAST,KWALE,MSAMBWENI,MIVUMONI,MIVUMONI,39.346900,-4.414920,GPS,4,MOH,,
39.5344,-4.33936,5,IBN SINA DISP,3668,COAST,KWALE,MSAMBWENI,KINONDO,KINONDO,39.534400,-4.339360,GPS,4,MISS,,
39.4982,-3.90842,70,KAFUDINI DISP,3779,COAST,KWALE,SAMBURU,MWATATE,MWATATE(KWALE),39.498200,-3.908420,GPS,4,MOH,,
39.3981,-4.0449,6,KIBANDAONGO DISP,576,COAST,KWALE,KINANGO,GANDINI,KIBANDAONGO,39.398100,-4.044900,GPS,4,MOH,,
39.31,-4.39594,7,KIBUYUNI DISP,577,COAST,KWALE,KUBO,MANGAWANI,MANGAWANI,39.310000,-4.395940,GPS,4,MOH,,
,,8,KICHAGA DISP,3781,COAST,KWALE,,,,,,,4,MISS,,
39.356837,-4.34917,9,KICHAKA SIMBA MISSION DISP,578,COAST,KWALE,KUBO,MWALUVANGA,MANYATTA(KWALE),39.356837,-4.349170,AMKENI,4,MISS,,
39.3135,-4.44607,10,KIKONENI H C,603,COAST,KWALE,MSAMBWENI,KIKONENI,BUMBANI,39.313500,-4.446070,GPS,3,MOH,,
39.0764,-4.35192,11,KILIMANGODO DISP,579,COAST,KWALE,MSAMBWENI,MWERENI,KILIMANGODO,39.076400,-4.351920,GPS,4,MOH,,
39.3132,-4.13986,12,KINANGO SUB-DISTRICT HOSPITAL,609,COAST,KWALE,KINANGO,KINANGO,KINANGO,39.313200,-4.139860,GPS,1,MOH,,
39.2324,-3.86981,13,KINANGONI DISP,4131,COAST,KWALE,SAMBURU,SAMBURU,KINAGONI(KWALE),39.232400,-3.869810,GPS,4,MOH,,
39.456,-4.17514,14,KWALE SUB-DISTRICT HOSPITAL,610,COAST,KWALE,MATUGA,GOLINI,GOLINI,39.456000,-4.175140,GPS,1,MOH,,
39.3157,-4.35608,15,LUKORE DISP,580,COAST,KWALE,KUBO,LUKORE,LUKORE,39.315700,-4.356080,GPS,4,MOH,,
39.1206,-4.55366,16,LUNGA LUNGA DISP,581,COAST,KWALE,MSAMBWENI,LUNGA LUNGA,SEGA(KWALE),39.120600,-4.553660,GPS,4,MOH,,
39.5,-3.95,17,LUTSANGANI DISP,582,COAST,KWALE,SAMBURU,KASEMENI,CHIGATO,39.500000,-3.950000,GPS,4,MOH,,
39.0402,-3.72904,18,MACKINON DISP,583,COAST,KWALE,SAMBURU,MACKNNON RD,MACKINNON RD,39.040200,-3.729040,GPS,4,MOH,,
39.375,-4.44518,19,MAFISINI DISP,584,COAST,KWALE,MSAMBWENI,MIVUMONI,MIVUMONI,39.375000,-4.445180,GPS,4,MOH,,
39.5563,-4.21096,20,MAGODZONI DISP,4132,COAST,KWALE,MATUGA,TIWI,SIMKUMBE,39.556300,-4.210960,GPS,4,MOH,,
39.2944,-4.40447,21,MAJIMOTO DISP,3669,COAST,KWALE,MSAMBWENI,DZOMBO,MRIMA/MALAMBA,39.294400,-4.404470,GPS,4,MOH,,
39.2762,-4.57561,22,MAJORENI DISP,585,COAST,KWALE,MSAMBWENI,PONGWE/KIDIMU,MAJORENI,39.276200,-4.575610,GPS,4,MOH,,
39.2454,-3.98457,23,MAKAMINI DISP,586,COAST,KWALE,SAMBURU,MAKAMINI,MAKAMINI,39.245400,-3.984570,GPS,4,MOH,,
,,24,MAKWANGANI MISSION DISP,3963,COAST,KWALE,,,,,,,4,MISS,,
39.2438,-4.45926,25,MAMBA DISP,,COAST,KWALE,MSAMBWENI,DZOMBO,MRIMA/MALAMBA,39.243800,-4.459260,GPS,4,MOH,,
39.4334,-3.88865,26,MANDA DISP,596,COAST,KWALE,SAMBURU,MWAVUMBO,KALALANI,39.433400,-3.888650,GPS,4,MOH,,
39.571,-4.16819,27,MATUGA DISP,587,COAST,KWALE,MATUGA,WAA,MATUGA,39.571000,-4.168190,GPS,4,MOH,,
39.54152,-3.96716,28,MAZERAS DISP,588,COAST,KWALE,SAMBURU,KASEMENI,MAZERAS,39.541520,-3.967160,GPS,4,MOH,,
39.495,-4.24406,29,MAZUMAALUME DISP,3299,COAST,KWALE,MATUGA,TSIMBA,MAZUMALUME,39.495000,-4.244060,GPS,4,MOH,,
39.53,-4.29503,30,MBUANI DISP,589,COAST,KWALE,MSAMBWENI,DIANI,BONGWE,39.530000,-4.295030,GPS,4,MOH,,
39.3962,-4.42287,31,MIVUMONI DISP,590,COAST,KWALE,MSAMBWENI,MIVUMONI,MIVUMONI,39.396200,-4.422870,GPS,4,MISS,,
39.2675,-4.29071,32,MKONGANI DISP,591,COAST,KWALE,KUBO,MKONGANI,MKOMBA,39.267500,-4.290710,GPS,4,MOH,,
39.3968,-4.66227,33,MKWIRO DISP,2897,COAST,KWALE,MSAMBWENI,PONGWE/KIDIMU,WASINI/MKWIRO,39.396800,-4.662270,GPS,4,MOH,,
39.4868,-3.98765,34,MNYENZENI DISP,592,COAST,KWALE,SAMBURU,KASEMENI,MNYENZENI,39.486800,-3.987650,GPS,4,MOH,,
39.2457,-4.48888,35,MRIMA DISP,593,COAST,KWALE,MSAMBWENI,DZOMBO,MRIMA/MALAMBA,39.245700,-4.488880,GPS,4,MISS,,
39.4708,-4.48007,36,MSAMBWENI DISTRICT HOSPITAL,611,COAST,KWALE,MSAMBWENI,MSAMBWENI,VINGUJINI,39.470800,-4.480070,GPS,1,MOH,,
39.3411,-4.00308,37,MTAA DISP,3964,COAST,KWALE,KINANGO,MTAA,MTAA,39.341100,-4.003080,GPS,4,MOH,,
,,38,MTUNWA HEALTH CENTRE,2903,COAST,KWALE,,,,,,,3,MISS,,
39.5141,-4.34114,39,MUHAKA DISP,594,COAST,KWALE,MSAMBWENI,KINONDO,KINONDO,39.514100,-4.341140,GPS,4,MOH,,
39.3663,-4.22579,40,MWALUPHAMBA DISP,595,COAST,KWALE,KUBO,MWALUPHAMBA,MLAFYENI,39.366300,-4.225790,GPS,4,MOH,,
39.363895,-4.379162,41,MWALUVANGA DISP,,COAST,KWALE,KUBO,MWALUVANGA,MWALUVANGA,39.363895,-4.379162,AMKENI,4,MOH,,
,,42,MWAMUA HEALTH DISP,2902,COAST,KWALE,,,,,,,4,MISS,,
39.4527,-4.34027,43,MWAPALA DISP,3782,COAST,KWALE,KUBO,MAJIMBONI,MAJIMBONI,39.452700,-4.340270,GPS,4,MOH,,
39.167,-4.25718,44,NDAVAYA DISP,597,COAST,KWALE,KINANGO,NDAVAYA,NDAVAYA,39.167000,-4.257180,GPS,4,MOH,,
39.631603,-4.128266,45,NG'OMBENI DISP,598,COAST,KWALE,MATUGA,NGOMBENI,NGOMBENI(KWALE),39.631603,-4.128266,GPS,4,MOH,,
39.2698,-3.79005,46,SAMBURU H C,604,COAST,KWALE,SAMBURU,SAMBURU,MATOPE,39.269800,-3.790050,GPS,3,MOH,,
39.4179,-4.35774,47,SHIMBA HILLS H C,605,COAST,KWALE,KUBO,MAJIMBONI,SHIMBA HILLS,39.417900,-4.357740,GPS,3,MOH,,
39.378825,-4.645082,48,SHIMONI DISP,599,COAST,KWALE,MSAMBWENI,PONGWE/KIDIMU,SHIMONI,39.378825,-4.645082,GPS,4,MOH,,
39.2822,-3.62041,49,SILALONI DISP,,COAST,KWALE,SAMBURU,CHENGONI,SILALONI,39.282200,-3.620410,GPS,4,MOH,,
39.1423,-3.75431,50,TARU HEALTH CENTRE,606,COAST,KWALE,SAMBURU,TARU,TARU,39.142300,-3.754310,GPS,3,MOH,,
39.5869,-4.24935,51,TIWI RURAL H T C,613,COAST,KWALE,MATUGA,TIWI,MKOYO,39.586900,-4.249350,GPS,3,MOH,,
39.576165,-4.287945,52,UKUNDA CATHOLIC DISP,,COAST,KWALE,MSAMBWENI,DIANI,UKUNDA,39.576165,-4.287945,AMKENI,4,MISS,,
39.217396,-4.660974,53,VANGA H C,607,COAST,KWALE,MSAMBWENI,VANGA,VANGA,39.217396,-4.660974,GPS,3,MOH,,
39.1633,-4.04133,54,VIGURUNGANI DISP,600,COAST,KWALE,KINANGO,VIGURUNGANI,VIGURUNGANI,39.163300,-4.041330,GPS,4,MOH,,
39.2142,-4.48469,55,VITSANGALAWENI DISP,601,COAST,KWALE,MSAMBWENI,DZOMBO,MRIMA/MALAMBA,39.214200,-4.484690,GPS,4,MOH,,
39.4883,-4.15284,56,VYONGWANI DISP,2898,COAST,KWALE,MATUGA,GOLINI,GOLINI,39.488300,-4.152840,GPS,4,MOH,,
39.6026,-4.1736,57,WAA DISP,602,COAST,KWALE,MATUGA,WAA,KITIVO,39.602600,-4.173600,GPS,4,MOH,,
39.3629,-4.65501,58,WASINI DISP,3783,COAST,KWALE,MSAMBWENI,PONGWE/KIDIMU,WASINI/MKWIRO,39.362900,-4.655010,GPS,4,MOH,,
40.68,-2.42,1,BAHARINI MISSION DISP,2446,COAST,LAMU,MPEKETONI,MPEKETONI,CENTRAL(LAMU),40.680000,-2.420000,ILRI MKT CENTRES,4,MISS,,
40.795232,-2.057423,2,BARGONI HEALTH CENTRE,3606,COAST,LAMU,HINDI,HINDI MAGOGONI,BARGONI,40.795232,-2.057423,DDP,3,MOH,,
41.106066,-2.071384,3,FAZA HEALTH CENTRE,626,COAST,LAMU,FAZA,TCHUNDWA,TCHUNDWA,41.106066,-2.071384,DDP,3,MOH,,
40.810619,-2.17357,4,HINDI MAGOGONI DISP,,COAST,LAMU,HINDI,HINDI MAGOGONI,HINDI MAGOGONI,40.810619,-2.173570,DANIDA,4,MOH,,
40.82,-2.18,5,HINDI PRISON DISP,615,COAST,LAMU,HINDI,HINDI MAGOGONI,HINDI MAGOGONI,40.820000,-2.180000,ILRI VILLAGES,4,MOH,,
40.657674,-2.341627,6,HONGWE CATHOLIC HEALTH CENTRE,616,COAST,LAMU,MPEKETONI,HONGWE,HONGWE,40.657674,-2.341627,SUBLOC CENTROID,3,MISS,,
41.123971,-2.080138,7,ICHUNDWA DISP,625,COAST,LAMU,KIZINGITINI,MBWAJUMWALI,MYABOGI,41.123971,-2.080138,DDP,4,MOH,,
41.489472,-1.741314,8,KIUNGA HEALTH CENTRE,627,COAST,LAMU,KIUNGA,KIUNGA,RUBU/MWAMBORE,41.489472,-1.741314,DDP,3,MOH,,
41.276085,-2.002129,9,KIWAYU DISP,618,COAST,LAMU,KIZINGITINI,NDAU,KIWAYUU,41.276085,-2.002129,DDP,4,MOH,,
41.1464,-2.07302,10,KIZINGITINI DISP,617,COAST,LAMU,KIZINGITINI,MBWAJUMWALI,MYABOGI,41.146400,-2.073020,DANIDA,4,MOH,,
40.716142,-2.368667,11,LAKE KENYATTA HEALTH CENTRE,2451,COAST,LAMU,MPEKETONI,MPEKETONI,KIONGWE,40.716142,-2.368667,HD MAPS,3,MISS,,
40.906769,-2.27857,12,LAMU DISTRICT HOSPITAL,631,COAST,LAMU,AMU,SHELLA MANDA,SHELLA(LAMU),40.906769,-2.278570,DANIDA,1,MOH,,
41.181,-1.746,13,MANGAI DISP,2508,COAST,LAMU,KIUNGA,BASUBA,MANGAI,41.181000,-1.746000,ILRI MKT CENTRES,4,MOH,,
40.858402,-2.29451,14,MATONDONI DISP,619,COAST,LAMU,AMU,MATONDONI,KIPUNGANI,40.858402,-2.294510,DISTRICT ESTIMATES,4,MOH,,
41.299752,-1.896091,15,MKOKONI DISP,3786,COAST,LAMU,KIUNGA,KIUNGA,MKOKONI,41.299752,-1.896091,SUBLOC CENTROID,4,MOH,,
40.6761,-2.29477,16,MKUNUBI DISP,620,COAST,LAMU,MPEKETONI,MKUNUMBI,MKUNUMBI,40.676100,-2.294770,1:50000 MAPS,4,MOH,,
40.7218,-2.42249,17,MLANGUMU DISP,,COAST,LAMU,MPEKETONI,BAHARINI,BAHARI,40.721800,-2.422490,1:50000 MAPS,4,MOH,,
40.315276,-2.274546,18,MOA (WEMA) MISSION DISP,2450,COAST,LAMU,WITU,DIDE WARIDE,MOA,40.315276,-2.274546,ILRI MKT CENTRES,4,MISS,,
40.830624,-2.226905,19,MOKOWE HEALTH CENTRE,628,COAST,LAMU,HINDI,MOKOWE,KILIMANI,40.830624,-2.226905,DDP,3,MOH,,
40.6976,-2.38934,20,MPEKETONI HEALTH CENTRE,629,COAST,LAMU,MPEKETONI,MPEKETONI,CENTRAL(LAMU),40.697600,-2.389340,1:50000 MAPS,3,MOH,,
40.860674,-2.234325,21,MUKOWE HOSPITAL,,COAST,LAMU,HINDI,MOKOWE,MOKOWE,40.860674,-2.234325,HD MAPS,1,MOH,,
40.780399,-2.01823,22,N.Y.S DISP (BARGONI),614,COAST,LAMU,HINDI,HINDI MAGOGONI,BARGONI,40.780399,-2.018230,DANIDA,4,MOH,,
41.209608,-2.011428,23,NDAU DISP,621,COAST,LAMU,KIZINGITINI,NDAU,NDAU,41.209608,-2.011428,DANIDA,4,MOH,,
40.481233,-2.203467,24,PANDA NGUO DISP,3787,COAST,LAMU,WITU,WITU,PANDANGUO,40.481233,-2.203467,SUBLOC CENTROID,4,MOH,,
41.011852,-2.119562,25,PATTE DISP,622,COAST,LAMU,FAZA,PATTE,PATTE,41.011852,-2.119562,DISTRICT ESTIMATES,4,MOH,,
,,26,R.D.A.U DISP,,COAST,LAMU,,,,,,,4,MOH,,
40.949199,-2.277881,27,SHELLA DISP,623,COAST,LAMU,AMU,SHELLA MANDA,MANDA(LAMU),40.949199,-2.277881,DISTRICT ESTIMATES,4,MOH,,
41.08097,-2.109339,28,SIYU DISP,624,COAST,LAMU,FAZA,SIYU,SIYU,41.080970,-2.109339,DISTRICT ESTIMATES,4,MOH,,
40.435958,-2.39067,29,WITU HEALTH CENTRE,630,COAST,LAMU,WITU,WITU,WITU,40.435958,-2.390670,DDP,3,MOH,,
39.477797,-3.065975,36,ADC GALANA RANCH DISP,3301,COAST,MALINDI,MALINDI,CHAKAMA,KISIKI CHA WANGIRIAM,39.477797,-3.065975,DSA/DFH(MOH)-UNFPA REPORT,4,MISS,,
39.979912,-2.8398,1,ADU DISP,512,COAST,MALINDI,MARAFA,ADU,ADU,39.979912,-2.839800,DANIDA,4,MOH,,
39.791723,-3.247002,2,AIC MALANGA DISP,4657,COAST,MALINDI,MALINDI,LANGOBAYA,MALANGA(MALINDI),39.791723,-3.247002,AMKENI,4,MISS,,
39.784611,-3.10371,3,BARICHO DISP,516,COAST,MALINDI,MARAFA,BUNGALE,BARICHO(MALINDI),39.784611,-3.103710,DANIDA,4,MOH,,
39.633499,-3.122,4,CHAKAMA DISP,518,COAST,MALINDI,MALINDI,CHAKAMA,MAKONGENI(MALINDI),39.633499,-3.122000,DANIDA,4,MOH,,
39.936409,-3.18239,5,DAGAMRA DISP,521,COAST,MALINDI,MARAFA,DAGAMRA,BATE,39.936409,-3.182390,DANIDA,4,MOH,,
40.093725,-2.917646,,FUNDISA DISP,2937,COAST,MALINDI,MAGARINI,FUNDISA,FUNDISA,40.093725,-2.917646,DHMT,4,MOH,,
40.116335,-3.197483,6,GALANA HOSPITAL,564,COAST,MALINDI,MALINDI,MALINDI,SABAKI,40.116335,-3.197483,AMKENI,1,MISS,,
39.891178,-3.13094,7,GARASHI DISP,526,COAST,MALINDI,MARAFA,GARASHI,MIKUYUNI(MALINDI),39.891178,-3.130940,DANIDA,4,MOH,,
40.050652,-3.284649,8,GEDE DISP,527,COAST,MALINDI,MALINDI,WATAMU,CHEMBE KIBABA MUCHE,40.050652,-3.284649,DANIDA,4,MOH,,
40.133381,-3.03614,9,GONGONI DISP,530,COAST,MALINDI,MAGARINI,GONGONI,GONGONI,40.133381,-3.036140,DANIDA,4,MOH,,
39.905842,-3.18922,10,JILORE HEALTH CENTRE,533,COAST,MALINDI,MALINDI,JILORE,JILORE/ZIAN,39.905842,-3.189220,DANIDA,3,MOH,,
39.86591,-3.16443,11,KAKONENI DISP,535,COAST,MALINDI,MALINDI,JILORE,KAKONENI,39.865910,-3.164430,DANIDA,4,MOH,,
40.001911,-3.22065,12,KAKUYUNI DISP,536,COAST,MALINDI,MALINDI,GOSHI,KAKUYUNI(MALINDI),40.001911,-3.220650,DANIDA,4,MOH,,
39.792298,-3.257113,14,MALANGA SDA DISPENSARY,,COAST,MALINDI,MALINDI,LANGOBAYA,MALANGA(MALINDI),39.792298,-3.257113,AMKENI,4,MISS,,
40.1182,-3.2165,15,MALINDI DISTRICT HOSPITAL,566,COAST,MALINDI,MALINDI,MALINDI,BARANI,40.118200,-3.216500,KEMRI-KILIFI PROJECT,1,MOH,,
40.136879,-3.11815,16,MAMBRUI DISP,542,COAST,MALINDI,MAGARINI,MAGARINI,MAMBRUI,40.136879,-3.118150,DANIDA,4,MOH,,
39.959728,-3.02833,17,MARAFA HEALTH CENTRE (MAGARINI),561,COAST,MALINDI,MARAFA,MARAFA,MADINA,39.959728,-3.028330,DANIDA,3,MOH,,
40.144611,-2.863,18,MARERENI DISP,3765,COAST,MALINDI,MAGARINI,FUNDISA,MARERENI,40.144611,-2.863000,DANIDA,4,MOH,,
40.112049,-3.09027,19,MARIKEBUNI DISP,543,COAST,MALINDI,MAGARINI,MAGARINI,MARIKEBUNI,40.112049,-3.090270,DANIDA,4,MOH,,
40.031232,-3.195264,20,MERE SDA DISP,,COAST,MALINDI,MALINDI,GOSHI,MALIMO,40.031232,-3.195264,AMKENI,4,MISS,,
40.037835,-2.702209,21,MIDZIJINI DISP,3766,COAST,MALINDI,MARAFA,ADU,RAMADA,40.037835,-2.702209,SUBLOC CENTROID,4,MISS,,
40.114903,-3.232732,22,MUNICIPAL HEALTH CENTRE,4350,COAST,MALINDI,MALINDI,MALINDI,SHELLA(MALINDI),40.114903,-3.232732,AMKENI,3,LA,,
40.140365,-2.963256,,NEEMA MEDICAL DISP,,COAST,MALINDI,MAGARINI,FUNDISA,FUNDISA,40.140365,-2.963256,DHMT,4,MISS,,
40.18,-3.01,23,NGOMENI DISP,549,COAST,MALINDI,MAGARINI,GONGONI,NGOMENI,40.180000,-3.010000,DANIDA,4,MOH,,
39.822899,-3.02801,25,SOSONI DISP,553,COAST,MALINDI,MARAFA,BUNGALE,DAKACHA,39.822899,-3.028010,DANIDA,4,MOH,,
40.112698,-3.220937,26,TAWFIQ MUSLIM HOSPITAL,2940,COAST,MALINDI,MALINDI,MALINDI,SHELLA(MALINDI),40.112698,-3.220937,AMKENI,1,MISS,,
40.114882,-3.216853,27,TAWHEED MUSLIM DISP,,COAST,MALINDI,MALINDI,MALINDI,BARANI,40.114882,-3.216853,AMKENI,4,MISS,,
40.01693,-3.35175,28,WATAMU SDA DISP,2917,COAST,MALINDI,MALINDI,WATAMU,WATAMU,40.016930,-3.351750,PSI,4,MISS,,
39.663987,-4.041251,1,ALMS HOUSE DISP,643,COAST,MOMBASA,ISLAND,TONONOKA,TONONOKA,39.663987,-4.041251,DSA/DFH(MOH)-UNFPA REPORT,4,LA,,
,,2,AMANI MEDICAL DISP,3534,COAST,MOMBASA,,,,,,,4,MISS,,
39.714984,-4.005339,3,ANNEXE DISP,4517,COAST,MOMBASA,KISAUNI,KISAUNI,KISAUNI,39.714984,-4.005339,DSA/DFH(MOH)-UNFPA REPORT,4,MOH,,
,,4,BAHARI DISP,632,COAST,MOMBASA,,,,,,,4,LA,,
39.707035,-3.973318,5,BAMBURI DISP,644,COAST,MOMBASA,KISAUNI,BAMBURI,BAMBURI,39.707035,-3.973318,SUBLOC CENTROID,4,LA,,
39.61943,-4.016913,6,CHAANI DISP,645,COAST,MOMBASA,CHANGAMWE,CHANGAMWE,CHANGAMWE,39.619430,-4.016913,SUBLOC CENTROID,4,LA,,
39.677362,-4.059355,7,COAST PROVINCIAL GENERAL HOSP.,696,COAST,MOMBASA,ISLAND,OLD TOWN,OLD T.(MAKADARA WARD,39.677362,-4.059355,HD MAPS,2,MOH,,
39.644637,-4.100958,8,CRESCENT MEDICAL AID DISP,3303,COAST,MOMBASA,LIKONI,LIKONI,TIMBWANI,39.644637,-4.100958,AMKENI,4,MISS,,
,,9,CYNN MED DISP,3836,COAST,MOMBASA,,,,,,,4,MISS,,
,,10,DOGA DISP,3538,COAST,MOMBASA,,,,,,,4,MISS,,
39.665141,-4.056412,11,ELIZA MEDICAL RENT DISP,4530,COAST,MOMBASA,ISLAND,MAJENGO,MWEMBE TAYARI,39.665141,-4.056412,ILRI MKT CENTRES,4,MISS,,
39.658767,-4.065307,12,GANJONI (CDC) DISP,648,COAST,MOMBASA,ISLAND,GANJONI,GANJONI,39.658767,-4.065307,SUBLOC CENTROID,4,LA,,
39.680918,-4.064671,13,HOLY GHOST CATHEDRAL DISP,3307,COAST,MOMBASA,ISLAND,GANJONI,KIZINGO(MOMBASA),39.680918,-4.064671,DSA/DFH(MOH)-UNFPA REPORT,4,MISS,,
,,14,JADESHI MEMORIAL DISP,4529,COAST,MOMBASA,,,,,,,4,MISS,,
,,15,JAFAGOS MEDICAL CENTRE,4525,COAST,MOMBASA,,,,,,,4,MISS,,
,,16,JAMIA PLAZA DISP,,COAST,MOMBASA,,,,,,,4,NGO,,
39.598962,-3.987726,17,JOMVU KUU HEALTH CENTRE,685,COAST,MOMBASA,CHANGAMWE,MIRITINI,JOMVU KUU,39.598962,-3.987726,DSA/DFH(MOH)-UNFPA REPORT,3,LA,,
39.596276,-3.990976,18,JOMVU REFUGEE CAMP,,COAST,MOMBASA,CHANGAMWE,MIRITINI,JOMVU KUU,39.596276,-3.990976,DSA/DFH(MOH)-UNFPA REPORT,4,NGO,,
39.65,-4.08,19,KILINDINI PORT DISP,651,COAST,MOMBASA,LIKONI,LIKONI,BOFU(MOMBASA),39.650000,-4.080000,ILRI VILLAGES,4,MOH,,
39.692579,-4.030596,20,KISAUNI DISP,653,COAST,MOMBASA,KISAUNI,KONGOWEA,MAWENI,39.692579,-4.030596,ILRI MKT CENTRES,4,MOH,,
39.684077,-4.041348,21,KONGOWEA HEALTH CENTRE,683,COAST,MOMBASA,KISAUNI,KONGOWEA,KONGOWEA,39.684077,-4.041348,AMKENI,3,MOH,,
39.68,-4.039701,22,KONGOWEA MED DISP,4523,COAST,MOMBASA,KISAUNI,KONGOWEA,KONGOWEA,39.680000,-4.039701,ILRI MKT CENTRES,4,MISS,,
39.6,-4.04,23,KWA JOMVU HEALTH CENTRE,684,COAST,MOMBASA,CHANGAMWE,PORT REITZ,PORT REITZ,39.600000,-4.040000,ILRI VILLAGES,3,LA,,
39.655484,-4.085214,24,LIKONI HEALTH CENTRE,687,COAST,MOMBASA,LIKONI,LIKONI,TIMBWANI,39.655484,-4.085214,AMKENI,3,MOH,,
39.644641,-4.111836,25,LIKONI MISSION DISP,655,COAST,MOMBASA,LIKONI,SHIKA ADABU,VIJIWENI,39.644641,-4.111836,DSA/DFH(MOH)-UNFPA REPORT,4,MISS,,
,,26,M.E.W.A  HOSPITAL,4471,COAST,MOMBASA,,,,,,,1,MISS,,
39.63,-4.0352,27,MAGONGO HEALTH CENTRE,688,COAST,MOMBASA,CHANGAMWE,KIPEVU,KIPEVU,39.630000,-4.035200,ILRI VILLAGES,3,LA,,
39.66667,-4.031532,28,MAJENGO DISP,689,COAST,MOMBASA,ISLAND,TUDOR,TUDOR FOUR,39.666670,-4.031532,1:50000 MAPS,4,LA,,
39.663509,-4.058393,29,MAJENGO MCH/FP CLINIC,,COAST,MOMBASA,ISLAND,MAJENGO,MAJENGO(MOMBASA),39.663509,-4.058393,DSA/DFH(MOH)-UNFPA REPORT,4,NGO,,
39.655225,-4.03153,30,MAKUPA HEALTH CENTRE,690,COAST,MOMBASA,ISLAND,TUDOR,TUDOR,39.655225,-4.031530,1:50000 MAPS,3,LA,,
39.660636,-4.045181,31,MAKUPA MCH/FP CLINIC,,COAST,MOMBASA,ISLAND,MAJENGO,MAJENGO(MOMBASA),39.660636,-4.045181,DSA/DFH(MOH)-UNFPA REPORT,4,NGO,,
,,32,MARY IMMACULATE DISPENSARY,,COAST,MOMBASA,,,,,,,4,MISS,,
,,33,MAUNGUJA DISP,659,COAST,MOMBASA,,,,,,,4,LA,,
,,34,MIKINDANI DISP,3305,COAST,MOMBASA,,,,,,,4,MOH,,
39.648458,-4.029325,35,MIKINDANI MISSION DISP,660,COAST,MOMBASA,CHANGAMWE,MIKINDANI,BIRIKANI,39.648458,-4.029325,DSA/DFH(MOH)-UNFPA REPORT,4,MISS,,
39.58529,-4.010761,36,MIRITINI DISP,4508,COAST,MOMBASA,CHANGAMWE,MIRITINI,MIRITINI,39.585290,-4.010761,SUBLOC CENTROID,4,LA,,
39.674068,-4.063657,37,MKOMANI HARAMBEE DISP,661,COAST,MOMBASA,ISLAND,GANJONI,KIZINGO(MOMBASA),39.674068,-4.063657,DSA/DFH(MOH)-UNFPA REPORT,4,NGO,,
,,38,MLALEO MEDICAL DISP,4518,COAST,MOMBASA,,,,,,,4,MISS,,
39.651523,-4.045337,39,MOW SHIMANZI DISP,656,COAST,MOMBASA,ISLAND,RAILWAY,SHIMANZI,39.651523,-4.045337,SUBLOC CENTROID,4,LA,,
39.641934,-4.068683,40,MTONGWE DISP,3959,COAST,MOMBASA,LIKONI,MTONGWE,MTONGWE,39.641934,-4.068683,DSA/DFH(MOH)-UNFPA REPORT,4,MISS,,
39.639063,-4.081243,41,MTONGWE HEALTH CENTRE,692,COAST,MOMBASA,LIKONI,MTONGWE,MTONGWE,39.639063,-4.081243,AMKENI,3,MOH,,
,,42,MTOPANGA DISP,4526,COAST,MOMBASA,,,,,,,4,MISS,,
,,43,MTUPANGA (ELIZA) DISP,3077,COAST,MOMBASA,,,,,,,4,MISS,,
39.67,-4.05,44,MVITA DISP (MOMBASA),638,COAST,MOMBASA,ISLAND,TONONOKA,BONDENI(MOMBASA),39.670000,-4.050000,ILRI VILLAGES,4,LA,,
39.685962,-3.960939,45,MWAKIRUGE DISP,663,COAST,MOMBASA,KISAUNI,BAMBURI,MWAKIRUNGE,39.685962,-3.960939,DSA/DFH(MOH)-UNFPA REPORT,4,LA,,
39.672694,-4.064651,46,MWEMBE TAYARI SUB HEALTH CENTRE,664,COAST,MOMBASA,ISLAND,GANJONI,KIZINGO(MOMBASA),39.672694,-4.064651,DDP,3,LA,,
39.67,-4.06,47,NGOMEN DISP,2370,COAST,MOMBASA,ISLAND,MAJENGO,MWEMBE TAYARI,39.670000,-4.060000,ILRI VILLAGES,4,MOH,,
39.674455,-4.05783,48,OLD TOWN KADER BHOY DISP,667,COAST,MOMBASA,ISLAND,OLD TOWN,OLD T.(MAKADARA WARD,39.674455,-4.057830,SUBLOC CENTROID,4,LA,,
39.602867,-4.039267,49,PORT REITZ DISTRICT HOSPITAL,700,COAST,MOMBASA,CHANGAMWE,PORT REITZ,PORT REITZ,39.602867,-4.039267,AMKENI,1,MOH,,
,,50,ROUND TABLE DISP,3539,COAST,MOMBASA,,,,,,,4,MISS,,
,,51,SEIFFEE FOUND DISP,4357,COAST,MOMBASA,,,,,,,4,MISS,,
39.743165,-3.976707,52,SHANZU HADIEK COLLEGE DISP,672,COAST,MOMBASA,KISAUNI,BAMBURI,SHANZU,39.743165,-3.976707,SUBLOC CENTROID,4,LA,,
39.637669,-4.11276,53,SHIKA ADABU DISP,674,COAST,MOMBASA,LIKONI,SHIKA ADABU,VIJIWENI,39.637669,-4.112760,AMKENI,4,MOH,,
39.742418,-3.956292,54,SHIMO LA TEWA DISP,675,COAST,MOMBASA,KISAUNI,BAMBURI,SHANZU,39.742418,-3.956292,DDP,4,MOH,,
39.667547,-4.071958,55,STATE HOUSE DISP,676,COAST,MOMBASA,ISLAND,GANJONI,KIZINGO(MOMBASA),39.667547,-4.071958,DSA/DFH(MOH)-UNFPA REPORT,4,MOH,,
39.65792,-4.117456,56,STELLA MARIE DISP,677,COAST,MOMBASA,LIKONI,SHIKA ADABU,VIJIWENI,39.657920,-4.117456,DSA/DFH(MOH)-UNFPA REPORT,4,MISS,,
39.657845,-4.094899,57,TIMBWANI CONSOLATA SISTERS DISPE,3956,COAST,MOMBASA,LIKONI,LIKONI,TIMBWANI,39.657845,-4.094899,SUBLOC CENTROID,4,MISS,,
39.661421,-4.029273,58,TUDOR HEALTH CENTRE,678,COAST,MOMBASA,ISLAND,TUDOR,TUDOR,39.661421,-4.029273,DDP,3,MOH,,
39.68143,-4.068035,59,UKUMBUSHO CPK HOSP,702,COAST,MOMBASA,ISLAND,GANJONI,KIZINGO(MOMBASA),39.681430,-4.068035,DSA/DFH(MOH)-UNFPA REPORT,1,MISS,,
39.72,-3.97,60,UTANGE DISP,679,COAST,MOMBASA,KISAUNI,BAMBURI,MWEMBE LEGEZA,39.720000,-3.970000,ILRI VILLAGES,4,LA,,
39.718534,-3.979314,61,UTANGE REFUGEE CAMP DISP,,COAST,MOMBASA,KISAUNI,BAMBURI,MWEMBE LEGEZA,39.718534,-3.979314,SUBLOC CENTROID,4,NGO,,
39.6,-4.06546,62,WATAMU DISP,558,COAST,MOMBASA,LIKONI,MTONGWE,MTONGWE,39.600000,-4.065460,ILRI MKT CENTRES,4,MOH,,
,,63,ZIWA-LA-NGOMBE DISP,3922,COAST,MOMBASA,,,,,,,4,MOH,,
38.654357,-3.67546,,BUGUTA DISP,,COAST,TAITA TAVETA,VOI,KASIGAU,BUGUTA,38.654357,-3.675460,SUBLOC CENTROID,4,MOH,,
38.315701,-3.50013,1,BURA DISP,704,COAST,TAITA TAVETA,MWATATE,BURA,NYOLO,38.315701,-3.500130,DANIDA,4,MOH,,
38.289771,-3.504139,2,BURA MISSION DISP,705,COAST,TAITA TAVETA,MWATATE,BURA,NYOLO,38.289771,-3.504139,DDP,4,MISS,,
37.736031,-3.29582,3,CHALA DISP,706,COAST,TAITA TAVETA,TAVETA,CHALA,CHALA,37.736031,-3.295820,DANIDA,4,MOH,,
37.694258,-3.438287,4,ELDORO MISSION DISP,707,COAST,TAITA TAVETA,TAVETA,KIMORIGO,KIMORIGO,37.694258,-3.438287,DDP,4,MISS,,
38.446301,-3.28928,5,GHAZI DISP,708,COAST,TAITA TAVETA,TAUSA,NGOLIA,GHAZI,38.446301,-3.289280,DANIDA,4,MOH,,
38.60778,-3.51759,6,KAJIRE DISP,2883,COAST,TAITA TAVETA,VOI,SAGALLA,KISHAMBA(VOI),38.607780,-3.517590,DANIDA,4,MOH,,
38.3438,-3.3842,7,KASIGAU HEALTH CENTRE,732,COAST,TAITA TAVETA,WUNDANYI,WERUGHA,MLONDO,38.343800,-3.384200,DANIDA,3,MOH,,
37.69194,-3.46046,8,KIMORIGO DISP,710,COAST,TAITA TAVETA,TAVETA,KIMORIGO,KIMORIGO,37.691940,-3.460460,DANIDA,4,MOH,,
38.323799,-3.2783,9,KISHUSHE DISP,711,COAST,TAITA TAVETA,WUNDANYI,KISHUSHE,KISHUSHE,38.323799,-3.278300,DANIDA,4,MOH,,
37.613098,-3.44028,10,KITOBO DISP,2884,COAST,TAITA TAVETA,TAVETA,KIMORIGO,KITOBO,37.613098,-3.440280,DANIDA,4,MOH,,
37.63136,-3.455871,11,KITOBO DISP,,COAST,TAITA TAVETA,TAVETA,KIMORIGO,KITOBO,37.631360,-3.455871,SUBLOC CENTROID,4,MISS,,
38.681469,-3.81333,12,MAKWASINJI DISP,4655,COAST,TAITA TAVETA,VOI,KASIGAU,MAKWASINYI,38.681469,-3.813330,DANIDA,4,MOH,,
38.477242,-3.089864,13,MANYANI DISP,3313,COAST,TAITA TAVETA,TSAVO N. PARK,TSAVO N. PARK,TSAVO N. PARK,38.477242,-3.089864,ILRI MKT CENTRES,4,MOH,,
38.659203,-3.674076,,MARUNGU DISP,,COAST,TAITA TAVETA,VOI,KASIGAU,BUGUTA,38.659203,-3.674076,SUBLOC CENTROID,4,MISS,,
37.7561,-3.47483,14,MATA DISP,714,COAST,TAITA TAVETA,TAVETA,JIPE,MATA,37.756100,-3.474830,DANIDA,4,MOH,,
38.383011,-3.3793,15,MBALE HEALTH CENTRE,733,COAST,TAITA TAVETA,WUNDANYI,MBALE,MBALE CENTRAL,38.383011,-3.379300,DANIDA,3,MOH,,
38.313862,-3.40141,16,MGANGE DISP,715,COAST,TAITA TAVETA,WUNDANYI,MGANGE,MGANGE NYIKA,38.313862,-3.401410,DANIDA,4,MOH,,
38.32,-3.39,17,MGANGE DISP,,COAST,TAITA TAVETA,WUNDANYI,WERUGHA,WERUGHA,38.320000,-3.390000,ILRI VILLAGES,4,MISS,,
38.2421,-3.4314,18,MNENGWA  DISP,4008,COAST,TAITA TAVETA,MWATATE,MWAKITAU,GODOMA(TAVETA),38.242100,-3.431400,PSI,4,MOH,,
38.56205,-3.39091,19,MOI VOI DISTRICT HOSPITAL,739,COAST,TAITA TAVETA,VOI,VOI,KALOLENI(TAVETA),38.562050,-3.390910,DANIDA,1,MOH,,
38.37886,-3.45746,20,MPINZINYI HEALTH CENTRE,734,COAST,TAITA TAVETA,MWATATE,KISHAMBA,KAYA/ILOLE,38.378860,-3.457460,DANIDA,3,MOH,,
38.290909,-3.43486,21,MRUGUA DISP,717,COAST,TAITA TAVETA,MWATATE,BURA,MURUGUA,38.290909,-3.434860,DANIDA,4,MOH,,
38.408401,-3.4139,22,MSAU DISP,718,COAST,TAITA TAVETA,TAUSA,RONGE,MSAU/RAHAI,38.408401,-3.413900,DANIDA,4,MOH,,
38.136189,-3.40801,23,MWAKITAU DISP,719,COAST,TAITA TAVETA,MWATATE,MWAKITAU,MWAKITAU,38.136189,-3.408010,DANIDA,4,MOH,,
38.431301,-3.35282,24,MWAMBIRWA DISP,720,COAST,TAITA TAVETA,MWAMBIRWA,RONGE JUU,KISHAU/KIWETO,38.431301,-3.352820,DANIDA,4,MOH,,
38.285809,-3.40195,25,MWANDA DISP,721,COAST,TAITA TAVETA,WUNDANYI,MWANDA,KISHAMBA(WUNDANYI),38.285809,-3.401950,DANIDA,4,MOH,,
38.368629,-3.50728,26,MWATATE HEALTH CENTRE,735,COAST,TAITA TAVETA,MWATATE,MWACHABO,MWACHABO,38.368629,-3.507280,DANIDA,3,MOH,,
38.477959,-3.297,27,NDOME DISP,723,COAST,TAITA TAVETA,TAUSA,NGOLIA,NDOME,38.477959,-3.297000,DANIDA,4,MOH,,
38.551224,-3.394956,35,NDOVU DISP,727,COAST,TAITA TAVETA,VOI,VOI,MWANGEA,38.551224,-3.394956,ILRI MKT CENTRES,4,MOH,,
37.725128,-3.19,28,NJUKINI DISP,724,COAST,TAITA TAVETA,TAVETA,NJUKINI,NJUKINI(TAVETA),37.725128,-3.190000,DANIDA,4,MOH,,
38.380901,-3.33836,29,NYACHE HEALTH CENTRE,736,COAST,TAITA TAVETA,WUNDANYI,WUMINGU,NYACHE,38.380901,-3.338360,DANIDA,3,MOH,,
38.3335,-3.43297,30,SAGAIGU DISP,2881,COAST,TAITA TAVETA,MWATATE,BURA,SAGHAIGU,38.333500,-3.432970,DANIDA,4,MOH,,
38.582191,-3.49354,31,SAGALA HEALTH CENTRE,737,COAST,TAITA TAVETA,VOI,SAGALLA,TERI,38.582191,-3.493540,DANIDA,3,MOH,,
38.46846,-3.43161,32,SHELEMBA DISP,725,COAST,TAITA TAVETA,TAUSA,RONGE,RONG'E NYIKA,38.468460,-3.431610,DANIDA,4,MOH,,
38.50169,-3.34175,33,TAUSA DISP,3923,COAST,TAITA TAVETA,TAUSA,MBOLOLO,TAUSA,38.501690,-3.341750,DANIDA,4,MOH,,
37.67725,-3.3987,34,TAVETA DISTRICT HOSPITAL,740,COAST,TAITA TAVETA,TAVETA,BOMANI,MBOGHONI,37.677250,-3.398700,DANIDA,1,MOH,,
,,,VIGOMBONYI DISP,,COAST,TAITA TAVETA,,,,,,,4,MISS,,
38.639858,-3.81356,36,WERUGHA DISP,729,COAST,TAITA TAVETA,VOI,KASIGAU,RUKANGA(TAVETA),38.639858,-3.813560,DANIDA,4,MOH,,
38.342159,-3.40885,37,WESU DISTRICT HOSPITAL,741,COAST,TAITA TAVETA,WUNDANYI,WUNDANYI,WUNDANYI,38.342159,-3.408850,DANIDA,1,MOH,,
38.359781,-3.41828,38,WUNDANYI HEALTH CENTRE,738,COAST,TAITA TAVETA,WUNDANYI,WUNDANYI,WUNDANYI,38.359781,-3.418280,DDP,3,MOH,,
38.354562,-3.469733,39,WUSI WUKESIA DISP,730,COAST,TAITA TAVETA,MWATATE,CHAWIA,CHAWIA,38.354562,-3.469733,DDP,4,MISS,,
39.014671,-0.151968,1,ASAKO DISP,1188,COAST,TANA RIVER,BANGALE,MBALAMBALA,ASAKO,39.014671,-0.151968,SUBLOC CENTROID,4,MOH,,
39.424629,-2.05182,2,ASSA DISP,742,COAST,TANA RIVER,GARSEN,ASSA,ASSA,39.424629,-2.051820,DANIDA,4,MOH,,
39.016659,-0.72541,3,BANGALE DISP,743,COAST,TANA RIVER,BANGALE,BANGALE,BANGALE,39.016659,-0.725410,DANIDA,4,MOH,,
39.91806,-1.084244,4,BURA CATHOLIC DISP(TANA RIVER),744,COAST,TANA RIVER,BURA,CHEWELE,WADESA,39.918060,-1.084244,ILRI MKT CENTRES,4,MISS,,
39.838829,-1.18281,5,BURA HEALTH CENTRE,791,COAST,TANA RIVER,BURA,BURA,METI,39.838829,-1.182810,DANIDA,3,MOH,,
39.82103,-1.18688,6,BURA NYS DISP,745,COAST,TANA RIVER,BURA,BURA,METI,39.821030,-1.186880,DANIDA,4,MOH,,
40.02169,-1.43728,7,CHEWANI DISP,748,COAST,TANA RIVER,GALORE,CHEWANI,CHEWANI,40.021690,-1.437280,DANIDA,4,MOH,,
39.951618,-1.158,8,CHEWELE DISP,749,COAST,TANA RIVER,BURA,CHEWELE,CHEWELE,39.951618,-1.158000,DANIDA,4,MOH,,
39.164769,-1.191098,9,CHIFIRI DISP,,COAST,TANA RIVER,GALORE,CHIFIRI,CHIFIRI,39.164769,-1.191098,DDP,4,MOH,,
39.45,-1.57,10,DABA DISP,750,COAST,TANA RIVER,GALORE,WAYU,WAYU,39.450000,-1.570000,ILRI VILLAGES,4,MISS,,
,,11,DARASA DISP,,COAST,TANA RIVER,,,,,,,4,MISS,,
39.11,-2.97,12,ELDORO DISP(TANA RIVER),751,COAST,TANA RIVER,TSAVO E  N .PARK,TSAVO E  N .PARK,TSAVO E N PARK,39.110000,-2.970000,ILRI VILLAGES,4,MISS,,
40.02795,-1.499007,13,EMMAUS DISP,752,COAST,TANA RIVER,GALORE,KIARIKUNGU,KIARIKUNGU,40.027950,-1.499007,ILRI MKT CENTRES,4,MISS,,
40.10762,-2.27091,14,GARSEN HEALTH CENTRE,792,COAST,TANA RIVER,GARSEN,BILISA,CHIRA,40.107620,-2.270910,DANIDA,3,MOH,,
40.030251,-1.4988,15,HOLA DISTRICT HOSPITAL,795,COAST,TANA RIVER,GALORE,KIARIKUNGU,KIARIKUNGU,40.030251,-1.498800,DANIDA,1,MOH,,
40.03208,-1.512465,16,HOLA MISSION DISP,2454,COAST,TANA RIVER,GALORE,ZUBAKI,HOLA,40.032080,-1.512465,SUBLOC CENTROID,4,MISS,,
39.918406,-1.084244,17,HURUMA DISP,753,COAST,TANA RIVER,BURA,CHEWELE,WADESA,39.918406,-1.084244,ILRI MKT CENTRES,4,MISS,,
40.122978,-2.29391,18,IDSOWE DISP,754,COAST,TANA RIVER,GARSEN,BILISA,GARSEN,40.122978,-2.293910,DANIDA,4,MOH,,
40.453161,-2.473381,19,KAU DISP,755,COAST,TANA RIVER,KIPINI,KILELENGWANI,KAU,40.453161,-2.473381,SUBLOC CENTROID,4,MOH,,
39.9648,-1.47434,20,KIARUKUNGU DISP,756,COAST,TANA RIVER,GALORE,KALKACHA,DAYATE,39.964800,-1.474340,1:50000 MAPS,4,MISS,,
40.216583,-2.422858,21,KIPAO DISP,,COAST,TANA RIVER,GARSEN,KIPAO,KIPAO,40.216583,-2.422858,SUBLOC CENTROID,4,MOH,,
,,22,KIPE DISPESARY,757,COAST,TANA RIVER,,,,,,,4,MOH,,
40.541761,-2.5308,23,KIPINI HEALTH CENTRE,793,COAST,TANA RIVER,KIPINI,KIPINI,KIPINI,40.541761,-2.530800,DANIDA,3,MOH,,
39.359733,-0.19679,24,KORATI DISP,2506,COAST,TANA RIVER,BANGALE,BUWA,KORATI,39.359733,-0.196790,SUBLOC CENTROID,4,MOH,,
39.607311,-0.47267,25,MADOGO HEALTH CENTRE,794,COAST,TANA RIVER,MADOGO,MADOGO,MADOGO,39.607311,-0.472670,DANIDA,3,MOH,,
40.1135,-1.903,26,MAJENGO DISP,758,COAST,TANA RIVER,WENJE,GWANO,HARA(TRIVER),40.113500,-1.903000,ILRI MKT CENTRES,4,MOH,,
40.000669,-1.3372,27,MAKERE DISP,760,COAST,TANA RIVER,GALORE,MAKERE,BUBU,40.000669,-1.337200,DANIDA,4,MOH,,
40.009009,-1.331081,28,MAKERE DISP,3817,COAST,TANA RIVER,GALORE,MAKERE,BUBU,40.009009,-1.331081,1:50000 MAPS,4,MISS,,
40.07,-2.12,29,MAREMBO DISP,,COAST,TANA RIVER,GARSEN,MWINA,SERA,40.070000,-2.120000,ILRI VILLAGES,4,MOH,,
,,30,MARIAMU DISP,762,COAST,TANA RIVER,,,,,,,4,MISS,,
39.92,-1.1,31,MARYKNOLL DISP,763,COAST,TANA RIVER,BURA,CHEWELE,WADESA,39.920000,-1.100000,ILRI VILLAGES,4,MISS,,
,,32,MAS DISP,764,COAST,TANA RIVER,,,,,,,4,MOH,,
40.00832,-1.50592,33,MAUMAU SEC SUB-HEALTH CENTRE,761,COAST,TANA RIVER,GALORE,KIARIKUNGU,KIARIKUNGU,40.008320,-1.505920,DANIDA,3,MOH,,
40.135109,-2.18453,34,MAZIWA DISP,797,COAST,TANA RIVER,GARSEN,MWINA,SERA,40.135109,-2.184530,DANIDA,4,MOH,,
39.066174,-1.134399,35,MBALAMBALA DISP,765,COAST,TANA RIVER,GALORE,CHIFIRI,CHIFIRI,39.066174,-1.134399,ILRI MKT CENTRES,4,MOH,,
,,36,MGENO DISP,766,COAST,TANA RIVER,,,,,,,4,MOH,,
,,37,MHEZUNI DISP,767,COAST,TANA RIVER,,,,,,,4,MOH,,
,,38,MINIJILA DISP,4392,COAST,TANA RIVER,,,,,,,4,MOH,,
40.149052,-1.97791,39,MNAZINI DISP,768,COAST,TANA RIVER,GARSEN,NDERA,BAOMO,40.149052,-1.977910,DANIDA,4,MOH,,
39.632476,-0.474663,40,MORORO HEALTH CENTRE,3818,COAST,TANA RIVER,MADOGO,MORORO,MORORO,39.632476,-0.474663,SUBLOC CENTROID,3,MOH,,
39.429224,-0.296412,41,MULANJO DISP,769,COAST,TANA RIVER,MADOGO,SAKA,MLANJO,39.429224,-0.296412,SUBLOC CENTROID,4,MOH,,
39.851012,-0.85945,42,NANIGHI DISP,771,COAST,TANA RIVER,BURA,NANIGHI,NANIGHI(TRIVER),39.851012,-0.859450,DDP,4,MOH,,
39.888416,-0.98261,43,NANIGHI NYS DISP,770,COAST,TANA RIVER,BURA,NANIGHI,NANIGHI(TRIVER),39.888416,-0.982610,DDP,4,MOH,,
40.201099,-2.41221,44,NGAO SUB-DISTRICT HOSPITAL,796,COAST,TANA RIVER,GARSEN,KIPAO,KIPAO,40.201099,-2.412210,DANIDA,1,MOH,,
40.193821,-2.46857,45,ODA DISP,772,COAST,TANA RIVER,GARSEN,NGAO,GOLBANTI,40.193821,-2.468570,DANIDA,4,MOH,,
40.42429,-2.509831,46,OZI DISP,773,COAST,TANA RIVER,KIPINI,KONE MANSA,ODOLE,40.424290,-2.509831,DDP,4,MOH,,
40.068272,-1.6107,47,PUMWANI DISP,775,COAST,TANA RIVER,WENJE,NDURA,HANDAMPIA,40.068272,-1.610700,DANIDA,4,MOH,,
,,48,REHEMA DISP,776,COAST,TANA RIVER,,,,,,,4,MISS,,
,,49,SAMBO DISP,2507,COAST,TANA RIVER,,,,,,,4,MOH,,
40.297727,-2.579019,50,SEMIKARO DISP,777,COAST,TANA RIVER,KIPINI,CHARA,SEMIKARO,40.297727,-2.579019,DDP,4,MOH,,
,,51,SHAKABABU DISP,4393,COAST,TANA RIVER,,,,,,,4,MOH,,
,,52,ST. FRANCIS DISP,779,COAST,TANA RIVER,,,,,,,4,MISS,,
40.132089,-2.581755,53,TARASA DISP,3609,COAST,TANA RIVER,GARSEN,WACHU-ODA,KURAWA,40.132089,-2.581755,DDP,4,MISS,,
,,54,TAVERA CATHOLIC DISP,782,COAST,TANA RIVER,,,,,,,4,MISS,,
39.245279,-1.722188,55,TITILA DISP,783,COAST,TANA RIVER,GALORE,WALDENA,TITILA,39.245279,-1.722188,SUBLOC CENTROID,4,MISS,,
39.9946,-1.41398,56,UMOJA DISP,784,COAST,TANA RIVER,GALORE,KIARIKUNGU,MATANYA(TRIVER),39.994600,-1.413980,1:50000 MAPS,4,MISS,,
39.059394,-1.691848,57,WALDENA AIC DISP,786,COAST,TANA RIVER,GALORE,WALDENA,WALDENA,39.059394,-1.691848,SUBLOC CENTROID,4,MISS,,
39.02536,-1.61078,58,WALDENA DISP,787,COAST,TANA RIVER,GALORE,WALDENA,WALDENA,39.025360,-1.610780,DANIDA,4,MOH,,
39.583912,-1.53075,59,WAYU DISP,788,COAST,TANA RIVER,GALORE,WAYU,WAYU,39.583912,-1.530750,DANIDA,4,MOH,,
40.164164,-2.229695,60,WEMA MISSION DISP,789,COAST,TANA RIVER,GARSEN,SALAMA,WEMA,40.164164,-2.229695,SUBLOC CENTROID,4,MISS,,
40.098,-1.786,61,WENJE CATHOLIC DISP,3608,COAST,TANA RIVER,WENJE,GWANO,WENJE,40.098000,-1.786000,ILRI MKT CENTRES,4,MISS,,
40.109058,-1.78983,62,WENJE DISP,790,COAST,TANA RIVER,WENJE,GWANO,WENJE,40.109058,-1.789830,DANIDA,4,MOH,,
37.7684,0.006292,1,CHAARIA MISSION HOSP,3043,EASTERN,CENTRAL MERU,ABOTHUGUCHI EAST,NDURUMA,GAITU,37.768400,0.006292,DSA/DFH(MOH)-UNFPA REPORT,1,MISS,,
37.651071,0.049779,2,CIERA CATHOLIC DISP,3589,EASTERN,CENTRAL MERU,MIRIGA MIERU WEST,NTIMA,TUNTU,37.651071,0.049779,ILRI MKT CENTRES,4,MISS,,
37.6622,-0.068017,3,CONSOLATA NKUBU MISS. HOSPITAL,1182,EASTERN,CENTRAL MERU,NKUENE,NKUENE,KATHERA(CMERU),37.662200,-0.068017,HD MAPS,1,MISS,,
37.4081,0.106337,6,EX-LEWA DISP,3215,EASTERN,CENTRAL MERU,TIMAU,KISIMA,BUURI,37.408100,0.106337,DSA/DFH(MOH)-UNFPA REPORT,4,MOH,,
37.7684,-0.007638,8,GAITU PCEA DISP,2519,EASTERN,CENTRAL MERU,ABOTHUGUCHI EAST,NDURUMA,GAITU,37.768400,-0.007638,DSA/DFH(MOH)-UNFPA REPORT,4,MISS,,
37.6595,0.044284,9,GAKOROMONE DISP,2382,EASTERN,CENTRAL MERU,MIRIGA MIERU WEST,MUNICIPALITY,GAKOROMONE,37.659500,0.044284,DSA/DFH(MOH)-UNFPA REPORT,4,MOH,,
37.6158,-0.088055,10,GANGARA PCEA DISP,2521,EASTERN,CENTRAL MERU,ABOGETA,IGOKI,UPPER CHURE,37.615800,-0.088055,DSA/DFH(MOH)-UNFPA REPORT,4,MISS,,
37.6506,-0.078557,11,GATIA PCEA DISP,396,EASTERN,CENTRAL MERU,NKUENE,MIKUMBUNE,KIGANE,37.650600,-0.078557,DSA/DFH(MOH)-UNFPA REPORT,4,MISS,,
37.6417,-0.000673,12,GATIMBI DISP,1077,EASTERN,CENTRAL MERU,ABOTHUGUCHI CENTRAL,MARIENE,MUGAMBONE,37.641700,-0.000673,DSA/DFH(MOH)-UNFPA REPORT,4,MOH,,
37.7171,-0.153908,13,GATUNTUNE PCEA DISP,2523,EASTERN,CENTRAL MERU,IGOJI,MWERU,MWERU(CMERU),37.717100,-0.153908,DSA/DFH(MOH)-UNFPA REPORT,4,MISS,,
37.715,-0.048,14,GATURI PCEA DISP,1079,EASTERN,CENTRAL MERU,ABOTHUGUCHI EAST,MWANGATHIA,IGANE,37.715000,-0.048000,ILRI VILLAGES,4,MISS,,
37.7684,0.03352,15,GIAKI DISP,1081,EASTERN,CENTRAL MERU,MIRIGA MIERU EAST,GIAKI,KAMBEREU,37.768400,0.033520,DSA/DFH(MOH)-UNFPA REPORT,4,MOH,,
37.6215,-0.005739,16,GITHONGO SUB DISTRICT HOSPITAL,1167,EASTERN,CENTRAL MERU,ABOTHUGUCHI WEST,GITHONGO EAST,KARUGWA,37.621500,-0.005739,DSA/DFH(MOH)-UNFPA REPORT,1,MOH,,
37.612,0.06518,17,GITORO (CONSOLATA) DISP,3083,EASTERN,CENTRAL MERU,FOREST,IMENTI FOREST,IMENTI FOREST,37.612000,0.065180,DSA/DFH(MOH)-UNFPA REPORT,4,MISS,,
,,18,GITORO (TENRI) DISP (JICA),3550,EASTERN,CENTRAL MERU,,,,,,,4,NGO,,
37.6132,-0.115971,5,IGADENE MISSION DISP,2654,EASTERN,CENTRAL MERU,ABOGETA,ABOGETA,UPPER KIUNGONE,37.613200,-0.115971,DSA/DFH(MOH)-UNFPA REPORT,4,MISS,,
37.6652,-0.193799,19,IGOJI MISSION HOSPITAL,1184,EASTERN,CENTRAL MERU,IGOJI,IGOJI,KUIRI,37.665200,-0.193799,DSA/DFH(MOH)-UNFPA REPORT,1,MISS,,
37.68,-0.2,20,IRUMA CATHOLIC DISP,2396,EASTERN,CENTRAL MERU,IGOJI,IGOJI,GIKUI(CMERU),37.680000,-0.200000,ILRI VILLAGES,4,MISS,,
37.5746,-0.079823,21,ITHIMBARI DISP,2525,EASTERN,CENTRAL MERU,ABOGETA,IGOKI,UPPER CHURE,37.574600,-0.079823,DSA/DFH(MOH)-UNFPA REPORT,4,MOH,,
37.65,0.06,82,KAMBAKIA CHRISTIAN CENTRE DISP,3553,EASTERN,CENTRAL MERU,MIRIGA MIERU WEST,MUNICIPALITY,KAAGA2,37.650000,0.060000,SUBLOC CENTROID,4,NGO,,
37.6702,-0.120981,22,KANYAKINE HEALTH CENTRE,1098,EASTERN,CENTRAL MERU,ABOGETA,KITHANGARI,NTHARENE,37.670200,-0.120981,DSA/DFH(MOH)-UNFPA REPORT,3,MOH,,
37.7038,-0.032333,23,KAONGO DISP,1099,EASTERN,CENTRAL MERU,ABOTHUGUCHI EAST,NDURUMA,KAONGO,37.703800,-0.032333,DSA/DFH(MOH)-UNFPA REPORT,4,MOH,,
37.6284,-0.203297,25,KARIA PCEA DISP,1101,EASTERN,CENTRAL MERU,IGOJI,KARIA,KARIA(CMERU),37.628400,-0.203297,DSA/DFH(MOH)-UNFPA REPORT,4,MISS,,
37.5879,-0.054495,26,KATHERA PCEA DISP,1105,EASTERN,CENTRAL MERU,NKUENE,NKUENE,KATHERA(CMERU),37.587900,-0.054495,DSA/DFH(MOH)-UNFPA REPORT,4,MISS,,
37.6873,-0.155807,27,KATHIGU PCEA DISP,1106,EASTERN,CENTRAL MERU,IGOJI,KIANJOGU,MIRURIIRI,37.687300,-0.155807,DSA/DFH(MOH)-UNFPA REPORT,4,MISS,,
37.7025,0.069612,28,KATHITHI DISP,1107,EASTERN,CENTRAL MERU,MIRIGA MIERU EAST,MUNITHU,KIRIMENE,37.702500,0.069612,DSA/DFH(MOH)-UNFPA REPORT,4,MOH,,
37.52,0.1,29,KIBIRICHIA DISP,,EASTERN,CENTRAL MERU,ABOTHUGUCHI WEST,KIAMIOGO,MBURUGITI,37.520000,0.100000,ILRI VILLAGES,4,MISS,,
37.5037,0.125967,30,KIBIRICHIA HEALTH CENTRE,1112,EASTERN,CENTRAL MERU,ABOTHUGUCHI WEST,KIAMIOGO,KIAMIOGO,37.503700,0.125967,DSA/DFH(MOH)-UNFPA REPORT,3,MOH,,
37.8887,-0.001939,31,KIBURINE DISP,3441,EASTERN,CENTRAL MERU,MIRIGA MIERU EAST,KIBURINE,MBIRIKENE,37.888700,-0.001939,DSA/DFH(MOH)-UNFPA REPORT,4,MOH,,
37.6126,-0.176703,32,KINORO DISP,3217,EASTERN,CENTRAL MERU,IGOJI,KINORO,KINORO,37.612600,-0.176703,DSA/DFH(MOH)-UNFPA REPORT,4,MOH,,
37.5841,-0.124147,33,KIONYO DISP,1122,EASTERN,CENTRAL MERU,ABOGETA,ABOGETA,UPPER KIUNGONE,37.584100,-0.124147,DSA/DFH(MOH)-UNFPA REPORT,4,MOH,,
37.6822,-0.094387,35,KIRONGINE PCEA DISP,1124,EASTERN,CENTRAL MERU,ABOGETA,IGOKI,KOTHINE,37.682200,-0.094387,DSA/DFH(MOH)-UNFPA REPORT,4,MISS,,
37.5638,0.130399,37,KIRUA COTTAGE HOSPITAL,2399,EASTERN,CENTRAL MERU,BUURI,KIIRUA,KIIRUA,37.563800,0.130399,DSA/DFH(MOH)-UNFPA REPORT,1,MISS,,
37.5607,0.143063,38,KIRUA DISP,1117,EASTERN,CENTRAL MERU,BUURI,KIIRUA,KIIRUA,37.560700,0.143063,DSA/DFH(MOH)-UNFPA REPORT,4,MOH,,
37.740945,-0.144378,39,KITHATU CATHOLIC DISP,3555,EASTERN,CENTRAL MERU,ABOGETA,KIRINGA,KITHATU,37.740945,-0.144378,SUBLOC CENTROID,4,MISS,,
37.5113,0.112669,40,MACHAKA CATHOLIC DISP,2894,EASTERN,CENTRAL MERU,ABOTHUGUCHI WEST,KIAMIOGO,KIAMIOGO,37.511300,0.112669,DSA/DFH(MOH)-UNFPA REPORT,4,MISS,,
37.8216,-0.079823,41,MAKANDUNE PCEA DISP,1127,EASTERN,CENTRAL MERU,ABOTHUGUCHI EAST,KIAGU,MAKANDUNE,37.821600,-0.079823,DSA/DFH(MOH)-UNFPA REPORT,4,MISS,,
37.6291,0.073411,43,MARIE STOPES DISP,3671,EASTERN,CENTRAL MERU,FOREST,IMENTI FOREST,IMENTI FOREST,37.629100,0.073411,DSA/DFH(MOH)-UNFPA REPORT,4,NGO,,
37.6641,0.060928,46,MERU DISTRICT HOSPITAL,1181,EASTERN,CENTRAL MERU,MIRIGA MIERU WEST,MUNICIPALITY,KAAGA2,37.664100,0.060928,HD MAPS,1,MOH,,
37.62112,0.225676,48,MINUGU DISP,1138,EASTERN,CENTRAL MERU,BUURI,RWARERA,KIRWIRO,37.621120,0.225676,1:50000 MAPS,4,MISS,,
37.779276,-0.101802,49,MITUNGUU DISP,3790,EASTERN,CENTRAL MERU,NKUENE,MITUNGUU,KIRINDENE,37.779276,-0.101802,1:50000 MAPS,4,MISS,,
37.6006,-0.072225,50,MKUMBUNE SUB DISTRICT HOSPITAL,1137,EASTERN,CENTRAL MERU,NKUENE,MIKUMBUNE,MIKUMBUNE,37.600600,-0.072225,DSA/DFH(MOH)-UNFPA REPORT,3,MOH,,
37.6987,-0.060827,53,MUJWA CATHOLIC DISP,1142,EASTERN,CENTRAL MERU,ABOTHUGUCHI EAST,MWANGATHIA,GATUUNE,37.698700,-0.060827,DSA/DFH(MOH)-UNFPA REPORT,4,MISS,,
37.7095,-0.160873,56,MWOROGA MISSION DISP,1150,EASTERN,CENTRAL MERU,IGOJI,MWERU,MWERU(CMERU),37.709500,-0.160873,DSA/DFH(MOH)-UNFPA REPORT,4,MISS,,
37.5657,0.091141,57,NAARI DISP,1151,EASTERN,CENTRAL MERU,BUURI,NAARI,MURUGUMA,37.565700,0.091141,DSA/DFH(MOH)-UNFPA REPORT,4,MOH,,
37.392321,0.202321,58,NGARENDARE DISP,2743,EASTERN,CENTRAL MERU,TIMAU,KISIMA,NGARE NDARE,37.392321,0.202321,1:50000 MAPS,4,MISS,,
37.6911,0.038585,59,NKABUNE MISSION DISP,1154,EASTERN,CENTRAL MERU,MIRIGA MIERU EAST,MULATHANKARI,NKABUNE,37.691100,0.038585,DSA/DFH(MOH)-UNFPA REPORT,4,MISS,,
37.702131,-0.132542,61,NKACII DISP,2745,EASTERN,CENTRAL MERU,ABOGETA,KIRINGA,KITHATU,37.702131,-0.132542,1:50000 MAPS,4,MOH,,
37.592321,-0.041232,63,NKANDO DISP,4453,EASTERN,CENTRAL MERU,NKUENE,NKUENE,URUKU(CMERU),37.592321,-0.041232,1:50000 MAPS,4,MOH,,
37.663113,-0.062288,160,NKUBU DISP,3718,EASTERN,CENTRAL MERU,NKUENE,NKUENE,KATHERA(CMERU),37.663113,-0.062288,ILRI MKT CENTRES,4,MOH,,
37.585537,-0.177278,64,NKUNJUMO CATHOLIC DISP,2397,EASTERN,CENTRAL MERU,IGOJI,KARIA,NKUNJUMU,37.585537,-0.177278,SUBLOC CENTROID,4,MISS,,
37.1877,-0.00004,68,ONTOLILI DISP,1157,EASTERN,CENTRAL MERU,FOREST,MT KENYA FOREST,MT KENYA FOREST2,37.187700,-0.000040,DSA/DFH(MOH)-UNFPA REPORT,4,MOH,,
37.6227,0.003759,69,RIIJI MISSION DISP,3019,EASTERN,CENTRAL MERU,ABOTHUGUCHI WEST,KATHERI EAST,KINJO NORTH,37.622700,0.003759,DSA/DFH(MOH)-UNFPA REPORT,4,MISS,,
37.6481,0.174723,70,RUIRI CATHOLIC DISP,1158,EASTERN,CENTRAL MERU,BUURI,RUIRI,NCOROIBORO,37.648100,0.174723,DSA/DFH(MOH)-UNFPA REPORT,4,MISS,,
37.6436,0.162059,71,RUIRI RHDC,1186,EASTERN,CENTRAL MERU,BUURI,RUIRI,NCOROIBORO,37.643600,0.162059,DSA/DFH(MOH)-UNFPA REPORT,3,MOH,,
37.2428,0.095573,73,TIMAU CATHOLIC DISP,2784,EASTERN,CENTRAL MERU,TIMAU,KIRIMARA,KIAMBOGO(CMERU),37.242800,0.095573,DSA/DFH(MOH)-UNFPA REPORT,4,MISS,,
37.265,0.110137,74,TIMAU HEALTH CENTRE,1177,EASTERN,CENTRAL MERU,TIMAU,NGUSISHI,MARITATI,37.265000,0.110137,DSA/DFH(MOH)-UNFPA REPORT,3,MOH,,
37.641232,0.052321,75,TUNTU DISP (MERU GK PRISON DISP),3432,EASTERN,CENTRAL MERU,MIRIGA MIERU WEST,NTIMA,TUNTU,37.641232,0.052321,1:50000 MAPS,4,MOH,,
37.5638,-0.037399,78,URUKU GK PRISON DISP,1163,EASTERN,CENTRAL MERU,NKUENE,NKUENE,URUKU(CMERU),37.563800,-0.037399,DSA/DFH(MOH)-UNFPA REPORT,4,MOH,,
37.6088,-0.030434,76,URUKU H C,1162,EASTERN,CENTRAL MERU,NKUENE,NKUENE,URUKU(CMERU),37.608800,-0.030434,DSA/DFH(MOH)-UNFPA REPORT,3,MOH,,
37.6557,-0.130479,79,YURURU DISP,3445,EASTERN,CENTRAL MERU,ABOGETA,KANYAKINE,KANYAKINE,37.655700,-0.130479,DSA/DFH(MOH)-UNFPA REPORT,4,MISS,,
37.5968,-0.417376,30,CONSOLATA HOSPITAL KYENI,4261,EASTERN,EMBU,KYENI,KYENI SOUTH,KATHANJURI,37.596800,-0.417376,HD MAPS,1,MISS,,
37.451526,-0.522311,2,EMBU CHILDREN CLINIC,,EASTERN,EMBU,CENTRAL,MUNICIPALITY,NJUKIRI,37.451526,-0.522311,ILRI MKT CENTRES,4,MISS,,
37.453604,-0.522973,3,EMBU PGH,840,EASTERN,EMBU,CENTRAL,MUNICIPALITY,NJUKIRI,37.453604,-0.522973,1:50000 MAPS,2,MOH,,
37.55,-0.47,4,ENA DISP,799,EASTERN,EMBU,RUNYENJES,KAGAARI SOUTH,KAWANJARA,37.550000,-0.470000,DHMT,4,MOH,,
37.5076,-0.385563,5,GAIKAMA DISP,4319,EASTERN,EMBU,RUNYENJES,KAGAARI NORTH,KIANJOKOMA,37.507600,-0.385563,DSA/DFH(MOH)-UNFPA REPORT,4,MISS,,
37.572321,-0.381235,6,GATUMBI DISP,802,EASTERN,EMBU,KYENI,KYENI NORTH,KIANGUNGI,37.572321,-0.381235,1:50000 MAPS,4,MOH,,
37.471234,-0.482321,7,GATUNDURI DISP,2783,EASTERN,EMBU,CENTRAL,MBETI NORTH,KIANGIMA,37.471234,-0.482321,1:50000 MAPS,4,MOH,,
37.4744,-0.548287,63,GERTRUDES DISP,4340,EASTERN,EMBU,CENTRAL,MBETI NORTH,ITABUA,37.474400,-0.548287,DSA/DFH(MOH)-UNFPA REPORT,4,MISS,,
37.4763,-0.555864,9,KAGUMOINI DISP,3546,EASTERN,EMBU,CENTRAL,MBETI NORTH,ITABUA,37.476300,-0.555864,DSA/DFH(MOH)-UNFPA REPORT,4,MISS,,
37.4647,-0.430926,10,KAIRURI DISP,807,EASTERN,EMBU,MANYATTA,NGANDORI,KAIRURI,37.464700,-0.430926,DSA/DFH(MOH)-UNFPA REPORT,4,MOH,,
37.4649,-0.509833,12,KANGARU DISP,809,EASTERN,EMBU,CENTRAL,MUNICIPALITY,NTHAMBO(EMBU),37.464900,-0.509833,DSA/DFH(MOH)-UNFPA REPORT,4,MOH,,
37.5275,-0.379137,13,KANJA DISP,811,EASTERN,EMBU,RUNYENJES,KAGAARI NORTH,KANJA,37.527500,-0.379137,DSA/DFH(MOH)-UNFPA REPORT,4,MOH,,
37.4615,-0.387075,15,KARAU H C,814,EASTERN,EMBU,MANYATTA,NGINDA,MBUVORI,37.461500,-0.387075,DSA/DFH(MOH)-UNFPA REPORT,3,MOH,,
37.66,-0.46,16,KARURUMO RHTC,844,EASTERN,EMBU,KYENI,KARURUMO,KATHUNGURI,37.660000,-0.460000,DHMT,3,MOH,,
37.4451,-0.478747,17,KATHANGARI DISP,815,EASTERN,EMBU,MANYATTA,NGANDORI,KATHANGARI,37.445100,-0.478747,DSA/DFH(MOH)-UNFPA REPORT,4,MOH,,
37.45,-0.41,18,KATHANGARIRI DISP,,EASTERN,EMBU,MANYATTA,NGINDA,NGUVIU,37.450000,-0.410000,DHMT,4,MOH,,
37.61,-0.42,19,KATHANJURI DISP,816,EASTERN,EMBU,KYENI,KYENI SOUTH,NYAGARI,37.610000,-0.420000,DHMT,4,MOH,,
37.5349,-0.444724,21,KEVOTE DISP,817,EASTERN,EMBU,NEMBURE,MAKENGI,KEVOTE,37.534900,-0.444724,DSA/DFH(MOH)-UNFPA REPORT,4,MISS,,
37.5016,-0.397093,22,KIANJOKOMA HEALTH CENTRE,837,EASTERN,EMBU,RUNYENJES,KAGAARI NORTH,KIANJOKOMA,37.501600,-0.397093,DSA/DFH(MOH)-UNFPA REPORT,3,MOH,,
37.4352,-0.444346,23,KIBUGU HEALTH CENTRE,838,EASTERN,EMBU,MANYATTA,NGINDA,KIBUGU,37.435200,-0.444346,DSA/DFH(MOH)-UNFPA REPORT,3,MOH,,
37.64,-0.42085,74,KIGUMO DISP,819,EASTERN,EMBU,KYENI,KYENI SOUTH,KIGUMO,37.640000,-0.420850,DSA/DFH(MOH)-UNFPA REPORT,4,MISS,,
37.4732,-0.398038,25,KIRIARI CPK DISP,2754,EASTERN,EMBU,MANYATTA,RUGURU,KIRIARI,37.473200,-0.398038,DSA/DFH(MOH)-UNFPA REPORT,4,MISS,,
37.5585,-0.510879,27,KITHEGI DISP,804,EASTERN,EMBU,NEMBURE,KITHIMU,KITHEGI,37.558500,-0.510879,DSA/DFH(MOH)-UNFPA REPORT,4,MOH,,
37.5192,-0.507477,28,KITHIMU DISP,805,EASTERN,EMBU,NEMBURE,KITHIMU,KITHIMU,37.519200,-0.507477,DSA/DFH(MOH)-UNFPA REPORT,4,MOH,,
37.4778,-0.358109,20,KITHUNGURIRI DISP,2443,EASTERN,EMBU,MANYATTA,RUGURU,KITHUNGURIRI,37.477800,-0.358109,DDP,4,MOH,,
37.5228,-0.452285,31,MAKENGI DISP,823,EASTERN,EMBU,NEMBURE,MAKENGI,MAKENGI,37.522800,-0.452285,DSA/DFH(MOH)-UNFPA REPORT,4,MOH,,
37.4782,-0.563803,32,MOTHER NAZZALLERO MISSION DISP,,EASTERN,EMBU,CENTRAL,MBETI NORTH,ITABUA,37.478200,-0.563803,DSA/DFH(MOH)-UNFPA REPORT,4,MISS,,
37.5869,-0.396106,33,MUFU DISP,826,EASTERN,EMBU,KYENI,KYENI NORTH,MUFU,37.586900,-0.396106,DSA/DFH(MOH)-UNFPA REPORT,4,MOH,,
37.67,-0.49,34,NDUMARI DISP,,EASTERN,EMBU,RUNYENJES,KAGAARI SOUTH,KIRINGA,37.670000,-0.490000,DHMT,4,MISS,,
37.508,-0.471186,35,NEMBURE DISP,827,EASTERN,EMBU,NEMBURE,GATURI SOUTH,NEMBURE,37.508000,-0.471186,DSA/DFH(MOH)-UNFPA REPORT,4,MOH,,
37.44,-0.41,36,NGUVIU DISP,829,EASTERN,EMBU,MANYATTA,NGINDA,NGUVIU,37.440000,-0.410000,DHMT,4,MISS,,
37.5764,-0.46765,37,NTHAGAIYA DISP,2436,EASTERN,EMBU,RUNYENJES,KAGAARI SOUTH,NTHANGAIYA,37.576400,-0.467650,DSA/DFH(MOH)-UNFPA REPORT,4,MISS,,
37.5698,-0.424635,39,RUNYENJES SUB-DISTRICT HOSPITAL,842,EASTERN,EMBU,RUNYENJES,RUNYENJES TOWN,KIGAA,37.569800,-0.424635,DSA/DFH(MOH)-UNFPA REPORT,1,MOH,,
37.574118,0.335795,,ACK DISP,,EASTERN,ISIOLO,CENTRAL,CENTRAL,BULLA PESA,37.574118,0.335795,DHMT,4,MISS,,
